Provider_ID,Provider_Name,Provider_Street_Address,Provider_City,Provider_State,Provider_Zip_Code,lat,lon,avg_covered_charges,overall_nat_avg_covered_charges,state_overall_avg_covered_charges,national_cost_factor,state_cost_factor
10001,SOUTHEAST ALABAMA MEDICAL CENTER,1108 ROSS CLARK CIRCLE,DOTHAN,AL,36301,31.215884,-85.3630079,45986.32174,67564.10221,60849.53034,0.68,0.76
10005,MARSHALL MEDICAL CENTER SOUTH,2505 U S HIGHWAY 431 NORTH,BOAZ,AL,35957,36.4110912,-89.013549,17744.54151,67564.10221,60849.53034,0.26,0.29
10006,ELIZA COFFEE MEMORIAL HOSPITAL,205 MARENGO STREET,FLORENCE,AL,35631,32.3620019,-97.395301,46523.7171,67564.10221,60849.53034,0.69,0.76
10007,MIZELL MEMORIAL HOSPITAL,702 N MAIN ST,OPP,AL,36467,41.0424083,-93.765867,12857.10183,67564.10221,60849.53034,0.19,0.21
10008,CRENSHAW COMMUNITY HOSPITAL,101 HOSPITAL CIRCLE,LUVERNE,AL,36049,34.2316619,-84.4802332,11349.95325,67564.10221,60849.53034,0.17,0.19
10011,ST VINCENT'S EAST,50 MEDICAL PARK EAST DRIVE,BIRMINGHAM,AL,35235,33.596457,-86.6676502,45250.78703,67564.10221,60849.53034,0.67,0.74
10012,DEKALB REGIONAL MEDICAL CENTER,200 MED CENTER DRIVE,FORT PAYNE,AL,35968,39.498696,-84.314817,37004.15481,67564.10221,60849.53034,0.55,0.61
10016,SHELBY BAPTIST MEDICAL CENTER,1000 FIRST STREET NORTH,ALABASTER,AL,35007,33.2524139,-86.8130445,52366.55654,67564.10221,60849.53034,0.78,0.86
10019,HELEN KELLER MEMORIAL HOSPITAL,1300 SOUTH MONTGOMERY AVENUE,SHEFFIELD,AL,35660,34.7464826,-87.6989299,24243.77902,67564.10221,60849.53034,0.36,0.4
10021,DALE MEDICAL CENTER,126 HOSPITAL AVE,OZARK,AL,36360,31.451328,-85.632075,13669.72054,67564.10221,60849.53034,0.2,0.22
10022,CHEROKEE MEDICAL CENTER,400 NORTHWOOD DR,CENTRE,AL,35960,37.639502,-122.433925,18674.79726,67564.10221,60849.53034,0.28,0.31
10023,BAPTIST MEDICAL CENTER SOUTH,2105 EAST SOUTH BOULEVARD,MONTGOMERY,AL,36116,32.327725,-86.2776717,45191.11813,67564.10221,60849.53034,0.67,0.74
10024,JACKSON HOSPITAL & CLINIC INC,1725 PINE STREET,MONTGOMERY,AL,36106,37.7890311,-122.4242452,45534.69057,67564.10221,60849.53034,0.67,0.75
10025,GEORGE H. LANIER MEMORIAL HOSPITAL,4800 48TH ST,VALLEY,AL,36854,38.532112,-121.450203,8778.983657,67564.10221,60849.53034,0.13,0.14
10029,EAST ALABAMA MEDICAL CENTER,2000 PEPPERELL PARKWAY,OPELIKA,AL,36801,32.6401629,-85.4037506,20799.31865,67564.10221,60849.53034,0.31,0.34
10032,WEDOWEE HOSPITAL,209 NORTH MAIN STREET,WEDOWEE,AL,36278,33.3946442,-104.5224885,16803.22298,67564.10221,60849.53034,0.25,0.28
10033,UNIVERSITY OF ALABAMA HOSPITAL,619 SOUTH 19TH STREET,BIRMINGHAM,AL,35233,39.9440523,-75.173409,82707.24003,67564.10221,60849.53034,1.22,1.36
10034,COMMUNITY HOSPITAL INC,805 FRIENDSHIP ROAD,TALLASSEE,AL,36078,32.534053,-85.912363,10713.97023,67564.10221,60849.53034,0.16,0.18
10035,CULLMAN REGIONAL MEDICAL CENTER,1912 ALABAMA HIGHWAY 157,CULLMAN,AL,35058,34.2075866,-86.8748531,27012.93049,67564.10221,60849.53034,0.4,0.44
10036,ANDALUSIA REGIONAL HOSPITAL,849 SOUTH THREE NOTCH STREET,ANDALUSIA,AL,36420,31.7936948,-85.9772143,19542.24573,67564.10221,60849.53034,0.29,0.32
10038,STRINGFELLOW MEMORIAL HOSPITAL,301 EAST 18TH ST,ANNISTON,AL,36201,37.7990618,-122.2524681,50661.28781,67564.10221,60849.53034,0.75,0.83
10039,HUNTSVILLE HOSPITAL,101 SIVLEY RD,HUNTSVILLE,AL,35801,36.827569,-87.4734205,66542.42193,67564.10221,60849.53034,0.98,1.09
10040,GADSDEN REGIONAL MEDICAL CENTER,1007 GOODYEAR AVENUE,GADSDEN,AL,35903,34.0077928,-85.9658747,106214.5726,67564.10221,60849.53034,1.57,1.75
10044,MARION REGIONAL MEDICAL CENTER,1256 MILITARY STREET SOUTH,HAMILTON,AL,35570,34.1267682,-87.9914577,22235.475,67564.10221,60849.53034,0.33,0.37
10045,FAYETTE MEDICAL CENTER,1653 TEMPLE AVENUE NORTH,FAYETTE,AL,35555,33.7075714,-87.8238317,17468.79894,67564.10221,60849.53034,0.26,0.29
10046,RIVERVIEW REGIONAL MEDICAL CENTER,600 SOUTH THIRD STREET,GADSDEN,AL,35901,39.4600213,-87.4133913,102105.8938,67564.10221,60849.53034,1.51,1.68
10047,GEORGIANA MEDICAL CENTER,515 N MIRANDA AVENUE,GEORGIANA,AL,36033,32.3118814,-106.7858255,6259.719071,67564.10221,60849.53034,0.09,0.1
10049,MEDICAL CENTER ENTERPRISE,400 N EDWARDS STREET,ENTERPRISE,AL,36330,45.303006,-122.971339,37835.77674,67564.10221,60849.53034,0.56,0.62
10051,GREENE COUNTY HOSPITAL,509 WILSON AVENUE,EUTAW,AL,35462,40.6923739,-73.9107975,6005.943858,67564.10221,60849.53034,0.09,0.1
10052,LAKE MARTIN COMMUNITY HOSPITAL,201 MARIARDEN ROAD,DADEVILLE,AL,36853,32.8200176,-85.7415985,5625.092086,67564.10221,60849.53034,0.08,0.09
10055,FLOWERS HOSPITAL,4370 WEST MAIN STREET,DOTHAN,AL,36305,38.2654207,-85.8194915,62302.72554,67564.10221,60849.53034,0.92,1.02
10056,ST VINCENT'S BIRMINGHAM,810 ST VINCENT'S DRIVE,BIRMINGHAM,AL,35205,33.5071812,-86.7889111,45264.4622,67564.10221,60849.53034,0.67,0.74
10058,BIBB MEDICAL CENTER,208 PIERSON AVE,CENTREVILLE,AL,35042,40.529488,-74.3498303,8273.348169,67564.10221,60849.53034,0.12,0.14
10059,LAWRENCE MEDICAL CENTER,202 HOSPITAL STREET,MOULTON,AL,35650,44.2959827,-69.7681082,16941.11371,67564.10221,60849.53034,0.25,0.28
10061,HIGHLANDS MEDICAL CENTER,380 WOODS COVE ROAD,SCOTTSBORO,AL,35768,34.6617313,-86.0466607,12964.14429,67564.10221,60849.53034,0.19,0.21
10062,WIREGRASS MEDICAL CENTER,1200 W MAPLE AVENUE,GENEVA,AL,36340,39.092939,-94.4304049,8495.61006,67564.10221,60849.53034,0.13,0.14
10065,RUSSELL HOSPITAL,3316 HIGHWAY 280,ALEXANDER CITY,AL,35010,33.8720768,-84.5292234,14103.56993,67564.10221,60849.53034,0.21,0.23
10069,MEDICAL CENTER BARBOUR,820 W WASHINGTON ST,EUFAULA,AL,36027,28.5433604,-81.3914344,13536.60016,67564.10221,60849.53034,0.2,0.22
10073,CLAY COUNTY HOSPITAL,83825 HIGHWAY 9    P O BOX 1270,ASHLAND,AL,36251,33.2774469,-85.822091,8156.726288,67564.10221,60849.53034,0.12,0.13
10078,NORTHEAST ALABAMA REGIONAL MED CENTER,400 EAST 10TH STREET,ANNISTON,AL,36207,40.7255975,-73.9772501,40108.10803,67564.10221,60849.53034,0.59,0.66
10079,ATHENS-LIMESTONE HOSPITAL,700 WEST MARKET STREET,ATHENS,AL,35611,36.0731221,-79.7985919,17447.26845,67564.10221,60849.53034,0.26,0.29
10083,SOUTH BALDWIN REGIONAL MEDICAL CENTER,1613 NORTH MCKENZIE STREET,FOLEY,AL,36535,30.4260938,-87.6843079,55118.68597,67564.10221,60849.53034,0.82,0.91
10085,DECATUR MORGAN HOSPITAL-DECATUR CAMPUS,1201 7TH STREET SE,DECATUR,AL,35601,34.5904135,-86.972417,21202.2145,67564.10221,60849.53034,0.31,0.35
10086,NORTHWEST MEDICAL CENTER,1530 U S HIGHWAY 43,WINFIELD,AL,35594,37.0741912,-94.5141128,21649.99784,67564.10221,60849.53034,0.32,0.36
10087,UNIVERSITY OF SOUTH ALABAMA MEDICAL CENTER,2451 FILLINGIM STREET,MOBILE,AL,36617,30.7072875,-88.0985628,34061.09559,67564.10221,60849.53034,0.5,0.56
10089,WALKER BAPTIST MEDICAL CENTER,3400 HIGHWAY 78 EAST,JASPER,AL,35502,33.8410575,-87.2365342,28485.48677,67564.10221,60849.53034,0.42,0.47
10090,PROVIDENCE HOSPITAL,6801 AIRPORT BOULEVARD,MOBILE,AL,36608,30.3340424,-97.7164746,33065.56079,67564.10221,60849.53034,0.49,0.54
10091,GROVE HILL MEMORIAL HOSPITAL,295 JACKSON HWY S,GROVE HILL,AL,36451,46.423579,-122.839975,9862.385683,67564.10221,60849.53034,0.15,0.16
10092,D C H REGIONAL MEDICAL CENTER,809 UNIVERSITY BOULEVARD EAST,TUSCALOOSA,AL,35401,38.9967311,-76.9935335,42157.84965,67564.10221,60849.53034,0.62,0.69
10095,HALE COUNTY HOSPITAL,508 GREEN STREET,GREENSBORO,AL,36744,37.799709,-122.4075833,8960.87879,67564.10221,60849.53034,0.13,0.15
10097,ELMORE COMMUNITY HOSPITAL,500 HOSPITAL DRIVE,WETUMPKA,AL,36092,36.2544136,-86.6819935,6707.196507,67564.10221,60849.53034,0.1,0.11
10099,D W MCMILLAN MEMORIAL HOSPITAL,1301 BELLEVILLE AVENUE,BREWTON,AL,36426,40.7963389,-74.1786892,12000.21618,67564.10221,60849.53034,0.18,0.2
10100,THOMAS HOSPITAL,750 MORPHY AVENUE,FAIRHOPE,AL,36532,30.5199765,-87.8886399,28813.8722,67564.10221,60849.53034,0.43,0.47
10101,CITIZENS BAPTIST MEDICAL CENTER,604 STONE AVENUE,TALLADEGA,AL,35161,33.439795,-86.0921538,18032.08168,67564.10221,60849.53034,0.27,0.3
10103,BAPTIST MEDICAL CENTER-PRINCETON,701 PRINCETON AVENUE SOUTHWEST,BIRMINGHAM,AL,35211,33.4984021,-86.8470166,71726.58612,67564.10221,60849.53034,1.06,1.18
10104,TRINITY MEDICAL CENTER,800 MONTCLAIR RD,BIRMINGHAM,AL,35213,33.5163586,-86.7483395,102254.2267,67564.10221,60849.53034,1.51,1.68
10108,PRATTVILLE BAPTIST HOSPITAL,124 S MEMORIAL DR,PRATTVILLE,AL,36067,32.464172,-86.451767,24025.05916,67564.10221,60849.53034,0.36,0.39
10109,PICKENS COUNTY MEDICAL CENTER,241 ROBERT K WILSON DRIVE,CARROLLTON,AL,35447,35.7595233,-85.8997915,12342.11956,67564.10221,60849.53034,0.18,0.2
10110,BULLOCK COUNTY HOSPITAL,102 WEST CONECUH AVENUE,UNION SPRINGS,AL,36089,32.146119,-85.713048,12340.92991,67564.10221,60849.53034,0.18,0.2
10112,BRYAN W. WHITFIELD MEMORIAL HOSPITAL,105 HIGHWAY 80 EAST,DEMOPOLIS,AL,36732,41.3246695,-72.8269235,7557.05059,67564.10221,60849.53034,0.11,0.12
10113,MOBILE INFIRMARY,5 MOBILE INFIRMARY CIRCLE,MOBILE,AL,36652,30.6963935,-88.0798395,35872.29469,67564.10221,60849.53034,0.53,0.59
10114,"MEDICAL WEST, AN AFFILIATE OF UAB HEALTH SYSTEM",995 9TH AVENUE SOUTHWEST,BESSEMER,AL,35021,33.3731473,-86.9916643,44715.51186,67564.10221,60849.53034,0.66,0.73
10118,VAUGHAN REGIONAL MEDICAL CENTER PARKWAY CAMPUS,1015 MEDICAL CENTER PARKWAY,SELMA,AL,36701,35.8556145,-86.4056936,35148.50624,67564.10221,60849.53034,0.52,0.58
10120,MONROE COUNTY HOSPITAL,"2016 SOUTH ALABAMA AVENUE, BOX 886",MONROEVILLE,AL,36460,31.0941841,-85.5863856,11334.47062,67564.10221,60849.53034,0.17,0.19
10125,LAKELAND COMMUNITY HOSPITAL,42024 HIGHWAY 195 E     POST OFFICE BOX 780,HALEYVILLE,AL,35565,37.0579107,-89.0752499,17350.17771,67564.10221,60849.53034,0.26,0.29
10126,TROY REGIONAL MEDICAL CENTER,1330 HIGHWAY 231 SOUTH,TROY,AL,36081,40.0479395,-80.3898423,24537.41033,67564.10221,60849.53034,0.36,0.4
10128,JACKSON MEDICAL CENTER,220 HOSPITAL DRIVE,JACKSON,AL,36545,39.1413326,-76.628292,8170.087002,67564.10221,60849.53034,0.12,0.13
10129,NORTH BALDWIN INFIRMARY,1815 HAND AVENUE,BAY MINETTE,AL,36507,30.9039384,-87.7850231,11912.85736,67564.10221,60849.53034,0.18,0.2
10130,ST VINCENT'S ST CLAIR,7063 VETERANS PARKWAY,PELL CITY,AL,35125,32.5306445,-84.9572369,21833.75373,67564.10221,60849.53034,0.32,0.36
10131,CRESTWOOD MEDICAL CENTER,ONE HOSPITAL DR SE,HUNTSVILLE,AL,35801,41.8792794,-79.1471211,63869.42429,67564.10221,60849.53034,0.95,1.05
10138,HILL HOSPITAL OF SUMTER COUNTY,751 DERBY DRIVE,YORK,AL,36925,43.1887841,-89.1925143,11021.81614,67564.10221,60849.53034,0.16,0.18
10139,BROOKWOOD MEDICAL CENTER,2010 BROOKWOOD MEDICAL CENTER DRIVE,BIRMINGHAM,AL,35209,33.4642365,-86.7764088,107327.6804,67564.10221,60849.53034,1.59,1.76
10144,SPRINGHILL MEMORIAL HOSPITAL,3719 DAUPHIN STREET,MOBILE,AL,36608,30.6852336,-88.1317111,36519.01991,67564.10221,60849.53034,0.54,0.6
10146,RMC JACKSONVILLE,1701 SOUTH PELHAM ROAD,JACKSONVILLE,AL,36265,33.784545,-85.7629725,23861.98005,67564.10221,60849.53034,0.35,0.39
10148,EVERGREEN MEDICAL CENTER,101 CRESTVIEW AVENUE,EVERGREEN,AL,36401,41.0886786,-73.5262975,8560.424044,67564.10221,60849.53034,0.13,0.14
10149,BAPTIST MEDICAL CENTER EAST,400 TAYLOR ROAD,MONTGOMERY,AL,36117,32.3760239,-86.1748584,30987.32251,67564.10221,60849.53034,0.46,0.51
10150,L V STABLER MEMORIAL HOSPITAL,29 L V STABLER DRIVE,GREENVILLE,AL,36037,31.8291371,-86.6463258,45490.70716,67564.10221,60849.53034,0.67,0.75
10157,SHOALS HOSPITAL,201 WEST AVALON AVENUE,MUSCLE SHOALS,AL,35661,34.744969,-87.675383,22894.1211,67564.10221,60849.53034,0.34,0.38
10158,RUSSELLVILLE HOSPITAL,15155 HIGHWAY 43,RUSSELLVILLE,AL,35653,30.3890018,-89.4425499,21268.61335,67564.10221,60849.53034,0.31,0.35
10164,COOSA VALLEY MEDICAL CENTER,315 W HICKORY ST,SYLACAUGA,AL,35150,33.1644466,-86.2552042,30305.24191,67564.10221,60849.53034,0.45,0.5
10168,JACK HUGHSTON MEMORIAL HOSPITAL,4401 RIVER CHASE DRIVE,PHENIX CITY,AL,36867,32.5080845,-85.0086714,49626.91199,67564.10221,60849.53034,0.73,0.82
10169,ATMORE COMMUNITY HOSPITAL,401 MEDICAL PARK DRIVE,ATMORE,AL,36502,31.016364,-87.479345,20547.96049,67564.10221,60849.53034,0.3,0.34
20001,PROVIDENCE ALASKA MEDICAL CENTER,BOX 196604,ANCHORAGE,AK,99508,34.971382,-97.2214585,102688.5643,67564.10221,80309.65225,1.52,1.28
20006,MAT-SU REGIONAL MEDICAL CENTER,2500 SOUTH WOODWORTH LOOP,PALMER,AK,99645,61.5631603,-149.2576383,51503.52516,67564.10221,80309.65225,0.76,0.64
20008,BARTLETT REGIONAL HOSPITAL,3260 HOSPITAL DR,JUNEAU,AK,99801,29.7016402,-90.5971814,31265.21231,67564.10221,80309.65225,0.46,0.39
20012,FAIRBANKS MEMORIAL HOSPITAL,1650 COWLES STREET,FAIRBANKS,AK,99701,64.8311569,-147.7399472,36884.65706,67564.10221,80309.65225,0.55,0.46
20017,ALASKA REGIONAL HOSPITAL,2801 DEBARR ROAD,ANCHORAGE,AK,99508,61.210404,-149.8286335,94893.16439,67564.10221,80309.65225,1.4,1.18
20024,CENTRAL PENINSULA GENERAL HOSPITAL,250 HOSPITAL PLACE,SOLDOTNA,AK,99669,37.2397615,-121.8002485,36691.52044,67564.10221,80309.65225,0.54,0.46
20026,ALASKA NATIVE MEDICAL CENTER,4315 DIPLOMACY DR,ANCHORAGE,AK,99508,61.1827424,-149.8006627,71723.51794,67564.10221,80309.65225,1.06,0.89
30001,ABRAZO MARYVALE CAMPUS,5102 WEST CAMPBELL AVENUE,PHOENIX,AZ,85031,33.5027798,-112.1706882,25615.82714,67564.10221,67233.70464,0.38,0.38
30002,BANNER - UNIVERSITY MEDICAL CENTER PHOENIX CAMPUS,1111 EAST MCDOWELL ROAD,PHOENIX,AZ,85006,33.4649397,-112.0579565,76051.59891,67564.10221,67233.70464,1.13,1.13
30006,TUCSON MEDICAL CENTER,5301 EAST GRANT ROAD,TUCSON,AZ,85712,32.252903,-110.8780795,48559.84246,67564.10221,67233.70464,0.72,0.72
30007,VERDE VALLEY MEDICAL CENTER,269 SOUTH CANDY LANE,COTTONWOOD,AZ,86326,34.7357759,-112.0292561,60068.31574,67564.10221,67233.70464,0.89,0.89
30010,CARONDELET ST  MARYS HOSPITAL,1601 WEST ST MARY'S ROAD,TUCSON,AZ,85745,32.228313,-110.9995908,46433.46407,67564.10221,67233.70464,0.69,0.69
30011,CARONDELET ST JOSEPH'S HOSPITAL,350 NORTH WILMOT ROAD,TUCSON,AZ,85711,32.2265668,-110.855335,53873.42488,67564.10221,67233.70464,0.8,0.8
30012,YAVAPAI REGIONAL MEDICAL CENTER,1003 WILLOW CREEK ROAD,PRESCOTT,AZ,86301,34.5596203,-112.4811881,43411.51027,67564.10221,67233.70464,0.64,0.65
30013,YUMA REGIONAL MEDICAL CENTER,2400 SOUTH AVENUE A,YUMA,AZ,85364,41.0761629,-80.6462497,47617.92081,67564.10221,67233.70464,0.7,0.71
30014,JOHN C LINCOLN MEDICAL CENTER,250 EAST DUNLAP AVENUE,PHOENIX,AZ,85020,33.5694587,-112.0708775,62478.74643,67564.10221,67233.70464,0.92,0.93
30022,MARICOPA MEDICAL CENTER,2601 EAST ROOSEVELT STREET,PHOENIX,AZ,85008,33.4576589,-112.0261121,73840.02795,67564.10221,67233.70464,1.09,1.1
30023,FLAGSTAFF MEDICAL CENTER,1200 NORTH BEAVER STREET,FLAGSTAFF,AZ,86001,35.20832,-111.643986,53332.93949,67564.10221,67233.70464,0.79,0.79
30024,ST JOSEPH'S HOSPITAL AND MEDICAL CENTER,350 WEST THOMAS ROAD,PHOENIX,AZ,85013,33.4819191,-112.0793604,85292.21824,67564.10221,67233.70464,1.26,1.27
30030,ABRAZO CENTRAL CAMPUS,2000 WEST BETHANY HOME ROAD,PHOENIX,AZ,85015,33.5247707,-112.1021957,51847.65658,67564.10221,67233.70464,0.77,0.77
30033,PAYSON REGIONAL MEDICAL CENTER,807 SOUTH PONDEROSA DRIVE,PAYSON,AZ,85541,33.3273979,-111.7132591,49286.41467,67564.10221,67233.70464,0.73,0.73
30036,CHANDLER REGIONAL MEDICAL CENTER,1955 WEST FRYE ROAD,CHANDLER,AZ,85224,33.2973867,-111.8746054,77806.41048,67564.10221,67233.70464,1.15,1.16
30037,ST LUKE'S MEDICAL CENTER,1800 EAST VAN BUREN STREET,PHOENIX,AZ,85006,33.4544851,-112.0423562,71720.3046,67564.10221,67233.70464,1.06,1.07
30038,SCOTTSDALE OSBORN MEDICAL CENTER,7400 EAST OSBORN ROAD,SCOTTSDALE,AZ,85251,33.4886726,-111.9231494,65921.98607,67564.10221,67233.70464,0.98,0.98
30043,SIERRA VISTA REGIONAL HEALTH CENTER,300 EL CAMINO REAL,SIERRA VISTA,AZ,85635,33.7429516,-117.8239614,26498.30551,67564.10221,67233.70464,0.39,0.39
30055,KINGMAN REGIONAL MEDICAL CENTER,3269 STOCKTON HILL ROAD,KINGMAN,AZ,86409,35.2203182,-114.0371188,52954.34765,67564.10221,67233.70464,0.78,0.79
30061,BANNER BOSWELL MEDICAL CENTER,10401 WEST THUNDERBIRD BOULEVARD,SUN CITY,AZ,85351,33.6042603,-112.2837994,55200.56704,67564.10221,67233.70464,0.82,0.82
30062,SUMMIT HEALTHCARE REGIONAL MEDICAL CENTER,2200 SHOW LOW LAKE ROAD,SHOW LOW,AZ,85901,34.2019458,-110.0191523,34831.80976,67564.10221,67233.70464,0.52,0.52
30064,BANNER-UNIVERSITY MEDICAL CENTER TUCSON CAMPUS,1501 NORTH CAMPBELL AVENUE,TUCSON,AZ,85724,32.2409829,-110.9457686,82586.0718,67564.10221,67233.70464,1.22,1.23
30065,BANNER DESERT MEDICAL CENTER,1400 SOUTH  DOBSON ROAD,MESA,AZ,85202,33.3899841,-111.877013,50191.34396,67564.10221,67233.70464,0.74,0.75
30068,MT GRAHAM REGIONAL MEDICAL CENTER,1600  SOUTH 20TH AVENUE,SAFFORD,AZ,85546,41.872938,-87.857433,21036.092,67564.10221,67233.70464,0.31,0.31
30069,HAVASU REGIONAL MEDICAL CENTER,101 CIVIC CENTER LANE,LAKE HAVASU CIT,AZ,86403,34.4803821,-114.3388668,52750.96739,67564.10221,67233.70464,0.78,0.78
30078,PHOENIX INDIAN MEDICAL CENTER,4212 NORTH 16TH STREET,PHOENIX,AZ,85016,33.49695,-112.049421,9579.234127,67564.10221,67233.70464,0.14,0.14
30083,ABRAZO SCOTTSDALE CAMPUS,3929 EAST BELL ROAD,PHOENIX,AZ,85032,33.639414,-111.9973914,31654.7721,67564.10221,67233.70464,0.47,0.47
30085,NORTHWEST MEDICAL CENTER,6200 NORTH LA CHOLLA BOULEVARD,TUCSON,AZ,85741,32.3202768,-111.0100752,61170.77926,67564.10221,67233.70464,0.91,0.91
30087,SCOTTSDALE SHEA MEDICAL CENTER,9003 EAST SHEA BOULEVARD,SCOTTSDALE,AZ,85260,33.580069,-111.8851432,67648.36122,67564.10221,67233.70464,1,1.01
30088,BANNER BAYWOOD MEDICAL CENTER,6644 EAST BAYWOOD AVENUE,MESA,AZ,85206,33.4113555,-111.6874923,48061.08675,67564.10221,67233.70464,0.71,0.71
30089,BANNER THUNDERBIRD MEDICAL CENTER,5555 WEST THUNDERBIRD ROAD,GLENDALE,AZ,85306,33.6092024,-112.1795965,58827.71969,67564.10221,67233.70464,0.87,0.87
30092,DEER VALLEY MEDICAL CENTER,19829 NORTH 27TH AVENUE,PHOENIX,AZ,85027,33.6657269,-112.1161079,57557.65719,67564.10221,67233.70464,0.85,0.86
30093,BANNER DEL E WEBB MEDICAL CENTER,14502 WEST MEEKER BOULEVARD,SUN CITY WEST,AZ,85375,33.659653,-112.372831,50423.39644,67564.10221,67233.70464,0.75,0.75
30094,ABRAZO ARROWHEAD CAMPUS,18701 NORTH 67TH AVENUE,GLENDALE,AZ,85308,33.6550895,-112.2015464,44189.55316,67564.10221,67233.70464,0.65,0.66
30101,WESTERN ARIZONA REGIONAL MEDICAL CENTER,2735 SILVER CREEK ROAD,BULLHEAD CITY,AZ,86442,35.1108174,-114.5549827,102142.5015,67564.10221,67233.70464,1.51,1.52
30103,MAYO CLINIC HOSPITAL,5777 EAST MAYO BOULEVARD,PHOENIX,AZ,85054,33.6588967,-111.9564212,53275.47464,67564.10221,67233.70464,0.79,0.79
30105,BANNER HEART HOSPITAL,6750 EAST BAYWOOD AVENUE,MESA,AZ,85206,33.4113567,-111.6858362,104655.2095,67564.10221,67233.70464,1.55,1.56
30107,ARIZONA SPINE AND JOINT HOSPITAL,4620 EAST BASELINE ROAD,MESA,AZ,85206,33.380264,-111.734607,49580.05061,67564.10221,67233.70464,0.73,0.74
30108,"SURGICAL HOSPITAL OF PHOENIX, THE",6501 NORTH 19TH AVENUE,PHOENIX,AZ,85015,33.5321969,-112.098972,35076.36217,67564.10221,67233.70464,0.52,0.52
30110,ABRAZO WEST CAMPUS,13677 WEST MCDOWELL ROAD,GOODYEAR,AZ,85395,33.4625569,-112.3521489,35155.7666,67564.10221,67233.70464,0.52,0.52
30111,BANNER-UNIVERSITY MEDICAL CENTER SOUTH CAMPUS,2800 EAST AJO WAY,TUCSON,AZ,85713,32.1759216,-110.9307509,39431.48187,67564.10221,67233.70464,0.58,0.59
30112,ARIZONA ORTHOPEDIC AND SURGICAL SPECIALITY HOSP,2905 WEST WARNER ROAD,CHANDLER,AZ,85224,33.3340207,-111.8912934,73301.60726,67564.10221,67233.70464,1.08,1.09
30113,WHITERIVER PHS INDIAN HOSPITAL,200 WEST HOSPITAL DRIVE  (PO BOX 860),WHITERIVER,AZ,85941,31.3251899,-89.3675821,9901.87987,67564.10221,67233.70464,0.15,0.15
30114,ORO VALLEY HOSPITAL,1551 EAST TANGERINE ROAD,ORO VALLEY,AZ,85755,32.428459,-110.948889,46967.31496,67564.10221,67233.70464,0.7,0.7
30115,BANNER ESTRELLA MEDICAL CENTER,9201 WEST THOMAS ROAD,PHOENIX,AZ,85037,33.478176,-112.257442,49234.39252,67564.10221,67233.70464,0.73,0.73
30117,VALLEY VIEW MEDICAL CENTER,5330 SOUTH HIGHWAY 95,FORT MOHAVE,AZ,86426,35.0027485,-114.5962766,48728.089,67564.10221,67233.70464,0.72,0.72
30118,YAVAPAI REGIONAL MEDICAL CENTER-EAST CAMPUS,7700 EAST FLORENTINE ROAD,PRESCOTT VALLEY,AZ,86314,34.5908402,-112.3307952,24641.95506,67564.10221,67233.70464,0.36,0.37
30119,MERCY GILBERT MEDICAL CENTER,3555 SOUTH VAL VISTA DRIVE,GILBERT,AZ,85296,33.2870306,-111.7524822,61499.28293,67564.10221,67233.70464,0.91,0.91
30121,"MOUNTAIN VISTA MEDICAL CENTER, LP",1301 SOUTH CRISMON ROAD,MESA,AZ,85209,33.391028,-111.6153056,67772.2385,67564.10221,67233.70464,1,1.01
30122,BANNER GATEWAY MEDICAL CENTER,1900 NORTH HIGLEY ROAD,GILBERT,AZ,85234,33.3840468,-111.7225666,50529.27811,67564.10221,67233.70464,0.75,0.75
30123,SCOTTSDALE THOMPSON PEAK MEDICAL CENTER,7400 EAST THOMPSON PEAK PARKWAY,SCOTTSDALE,AZ,85255,33.6706949,-111.9220325,52279.16724,67564.10221,67233.70464,0.77,0.78
30130,BANNER IRONWOOD MEDICAL CENTER,37000 NORTH GANTZEL ROAD,SAN TAN VALLEY,AZ,85140,33.2144943,-111.5656332,35682.33963,67564.10221,67233.70464,0.53,0.53
30131,OASIS HOSPITAL,750 NORTH 40TH STREET,PHOENIX,AZ,85008,33.4565795,-111.9965192,41383.59894,67564.10221,67233.70464,0.61,0.62
30132,"FLORENCE HOSPITAL AT ANTHEM, LLC",4545 NORTH HUNT HIGHWAY,FLORENCE,AZ,85132,33.0731864,-111.4858889,35240.8,67564.10221,67233.70464,0.52,0.52
30134,BANNER GOLDFIELD MEDICAL CENTER,2050 WEST SOUTHERN AVENUE,APACHE JUNCTION,AZ,85120,33.3934607,-111.8761884,28696.99738,67564.10221,67233.70464,0.42,0.43
40001,SILOAM SPRINGS REGIONAL HOSPITAL,603 NORTH PROGRESS AVENUE,SILOAM SPRINGS,AR,72761,40.2990774,-76.8459365,30827.75445,67564.10221,44990.229,0.46,0.69
40002,JOHNSON REGIONAL MEDICAL CENTER,1100 EAST POPLAR STREET,CLARKSVILLE,AR,72830,39.7329076,-104.9046113,9805.586259,67564.10221,44990.229,0.15,0.22
40004,WASHINGTON REGIONAL MED CTR AT NORTH HILLS,3215 N NORTH HILLS BLVD,FAYETTEVILLE,AR,72703,34.7843125,-92.2377034,41804.1912,67564.10221,44990.229,0.62,0.93
40007,ST VINCENT INFIRMARY MEDICAL CENTER,TWO ST VINCENT CIRCLE,LITTLE ROCK,AR,72205,34.7504671,-92.3393722,55478.99927,67564.10221,44990.229,0.82,1.23
40010,MERCY HOSPITAL NORTHWEST ARKANSAS,2710 RIFE MEDICAL LANE,ROGERS,AR,72758,36.3089205,-94.1830957,28238.6527,67564.10221,44990.229,0.42,0.63
40011,CHAMBERS MEMORIAL HOSPITAL,719 DETROIT STREET,DANVILLE,AR,72833,39.7278926,-104.9540614,6297.159814,67564.10221,44990.229,0.09,0.14
40014,WHITE COUNTY MEDICAL CENTER,3214 EAST RACE AVENUE,SEARCY,AR,72143,35.2506878,-91.6923333,25843.07236,67564.10221,44990.229,0.38,0.57
40015,MENA REGIONAL HEALTH SYSTEM,311 NORTH MORROW STREET,MENA,AR,71953,40.4352707,-79.2595189,12815.07585,67564.10221,44990.229,0.19,0.28
40017,NORTH ARKANSAS REGIONAL MEDICAL CENTER,620 NORTH MAIN STREET,HARRISON,AR,72601,40.3259478,-75.1307227,20253.07024,67564.10221,44990.229,0.3,0.45
40018,SPARKS MEDICAL CENTER - VAN BUREN,EAST MAIN AND SOUTH 20TH STREET,VAN BUREN,AR,72956,39.1367222,-77.7144629,35137.3957,67564.10221,44990.229,0.52,0.78
40019,FORREST CITY MEDICAL CENTER,1601 NEWCASTLE ROAD,FORREST CITY,AR,72335,42.422068,-82.9112797,17828.74675,67564.10221,44990.229,0.26,0.4
40020,ST BERNARDS MEDICAL CENTER,225 E JACKSON,JONESBORO,AR,72401,40.1703214,-92.1735866,18030.01028,67564.10221,44990.229,0.27,0.4
40022,NORTHWEST MEDICAL CENTER-SPRINGDALE,609 WEST MAPLE AVENUE,SPRINGDALE,AR,72764,39.003413,-77.414603,66822.50937,67564.10221,44990.229,0.99,1.49
40026,MERCY HOSPITAL HOT SPRINGS,300 WERNER STREET,HOT SPRINGS,AR,71903,34.4681702,-93.0663135,38319.11363,67564.10221,44990.229,0.57,0.85
40027,BAXTER REGIONAL MEDICAL CENTER,624 HOSPITAL DRIVE,MOUNTAIN HOME,AR,72653,36.3429502,-92.3944185,25460.28833,67564.10221,44990.229,0.38,0.57
40029,CONWAY REGIONAL MEDICAL CENTER,2302 COLLEGE AVENUE,CONWAY,AR,72034,37.8691694,-122.2546098,22803.49397,67564.10221,44990.229,0.34,0.51
40036,BAPTIST HEALTH MEDICAL CENTER NORTH LITTLE ROCK,3333 SPRINGHILL DRIVE,NORTH LITTLE RO,AR,72117,34.7837697,-92.2220519,32352.20321,67564.10221,44990.229,0.48,0.72
40039,ARKANSAS METHODIST MEDICAL CENTER,900 WEST KINGSHIGHWAY,PARAGOULD,AR,72450,36.0525616,-90.4978107,16169.20678,67564.10221,44990.229,0.24,0.36
40041,ST MARYS REGIONAL MEDICAL CENTER,1808 WEST MAIN STREET,RUSSELLVILLE,AR,72801,38.2592537,-85.7805116,38066.51778,67564.10221,44990.229,0.56,0.85
40042,CRITTENDEN MEMORIAL HOSPITAL,200 TYLER,WEST MEMPHIS,AR,72301,48.6867842,-116.314481,24494.27539,67564.10221,44990.229,0.36,0.54
40047,FIVE RIVERS MEDICAL CENTER,2801 MEDICAL CENTER DRIVE,POCAHONTAS,AR,72455,36.1428452,-86.8005126,7913.168213,67564.10221,44990.229,0.12,0.18
40050,OUACHITA COUNTY MEDICAL CENTER,638 CALIFORNIA AVENUE,CAMDEN,AR,71701,35.368538,-119.0092576,15012.17281,67564.10221,44990.229,0.22,0.33
40051,DREW MEMORIAL HOSPITAL,778 SCOGIN DRIVE,MONTICELLO,AR,71655,33.6088487,-91.8150398,7807.973549,67564.10221,44990.229,0.12,0.17
40055,SPARKS REGIONAL MEDICAL CENTER,1001 TOWSON AVENUE,FORT SMITH,AR,72902,35.3745312,-94.4194135,48929.77709,67564.10221,44990.229,0.72,1.09
40062,ST EDWARD MERCY MEDICAL CENTER,7301 ROGERS AVE,FORT SMITH,AR,72917,35.3557971,-94.3526657,34253.14672,67564.10221,44990.229,0.51,0.76
40067,MAGNOLIA HOSPITAL,101 HOSPITAL DRIVE,MAGNOLIA,AR,71754,38.9376128,-92.328162,10691.52825,67564.10221,44990.229,0.16,0.24
40069,GREAT RIVER MEDICAL CENTER,1520 N DIVISION STREET,BLYTHEVILLE,AR,72315,42.4323391,-88.6140263,13439.31664,67564.10221,44990.229,0.2,0.3
40071,JEFFERSON REGIONAL MEDICAL CENTER,1600 WEST 40TH AVENUE,PINE BLUFF,AR,71603,39.7715995,-105.0057263,40292.35629,67564.10221,44990.229,0.6,0.9
40072,BAPTIST HEALTH MEDICAL CENTER-STUTTGART,1703 NORTH BUERKLE ROAD,STUTTGART,AR,72160,34.517642,-91.559316,10690.01092,67564.10221,44990.229,0.16,0.24
40074,NORTH METRO MEDICAL CENTER,1400 BRADEN STREET,JACKSONVILLE,AR,72076,34.873582,-92.124839,15517.53596,67564.10221,44990.229,0.23,0.34
40076,BAPTIST HEALTH MEDICAL CENTER-HOT SPRINGS COUNTY,1001 SCHNEIDER DRIVE,MALVERN,AR,72104,34.3587893,-92.785668,13237.42612,67564.10221,44990.229,0.2,0.29
40078,NATIONAL PARK MEDICAL CENTER,1910 MALVERN AVENUE,HOT SPRINGS,AR,71901,34.486004,-93.035211,76551.59876,67564.10221,44990.229,1.13,1.7
40080,HARRIS HOSPITAL,1205 MCLAIN STREET,NEWPORT,AR,72112,35.608362,-91.26499,24579.4129,67564.10221,44990.229,0.36,0.55
40084,SALINE MEMORIAL HOSPITAL,#1 MEDICAL PARK DRIVE,BENTON,AR,72015,34.572905,-92.585083,20289.25681,67564.10221,44990.229,0.3,0.45
40085,HELENA REGIONAL MEDICAL CENTER,1801 MARTIN LUTHER KING JR DRIVE,HELENA,AR,72342,36.0510589,-79.7792683,30814.39202,67564.10221,44990.229,0.46,0.68
40088,MEDICAL CENTER SOUTH ARKANSAS,700 WEST GROVE STREET,EL DORADO,AR,71731,41.9009657,-70.9558764,56649.35528,67564.10221,44990.229,0.84,1.26
40118,NEA BAPTIST MEMORIAL HOSPITAL,4800 EAST JOHNSON AVENUE,JONESBORO,AR,72401,35.8665919,-90.6365507,38712.58012,67564.10221,44990.229,0.57,0.86
40119,WHITE RIVER MEDICAL CENTER,1710 HARRISON STREET,BATESVILLE,AR,72503,37.769369,-122.4134446,33141.55076,67564.10221,44990.229,0.49,0.74
40134,"ARKANSAS HEART HOSPITAL, LLC",1701 S SHACKLEFORD ROAD,LITTLE ROCK,AR,72211,34.7392007,-92.3932502,49146.69034,67564.10221,44990.229,0.73,1.09
40137,ST VINCENT MEDICAL CENTER/NORTH,2215 WILDWOOD AVENUE,SHERWOOD,AR,72120,34.8131598,-92.2083455,21300.5489,67564.10221,44990.229,0.32,0.47
40147,ARKANSAS SURGICAL HOSPITAL,5201 NORTH SHORE DRIVE,NO LITTLE ROCK,AR,72118,46.888336,-91.911744,39074.64649,67564.10221,44990.229,0.58,0.87
40152,PHYSICIANS' SPECIALTY HOSPITAL,3873 NORTH PARKVIEW DRIVE,FAYETTEVILLE,AR,72703,39.1999967,-86.5464284,33579.64749,67564.10221,44990.229,0.5,0.75
40153,WADLEY REGIONAL MEDICAL CENTER AT HOPE,2001 SOUTH MAIN,HOPE,AR,71801,32.5298535,-93.0507967,23306.65731,67564.10221,44990.229,0.34,0.52
50002,ST ROSE HOSPITAL,27200 CALAROGA AVE,HAYWARD,CA,94545,37.6335775,-122.0882534,93880.90515,67564.10221,114847.6246,1.39,0.82
50006,ST JOSEPH HOSPITAL,2700 DOLBEER ST,EUREKA,CA,95501,40.7839228,-124.1422119,73655.94112,67564.10221,114847.6246,1.09,0.64
50007,MILLS-PENINSULA MEDICAL CENTER,1501 TROUSDALE DRIVE,BURLINGAME,CA,94010,37.5921025,-122.3833423,68724.00624,67564.10221,114847.6246,1.02,0.6
50008,CALIFORNIA PACIFIC MEDICAL CTR-DAVIES CAMPUS HOSP,601 DUBOCE AVE,SAN FRANCISCO,CA,94117,37.7682373,-122.4345939,100601.4239,67564.10221,114847.6246,1.49,0.88
50009,QUEEN OF THE VALLEY MEDICAL CENTER,1000 TRANCAS ST,NAPA,CA,94558,38.3251588,-122.2966229,95035.78544,67564.10221,114847.6246,1.41,0.83
50013,ST HELENA HOSPITAL,10 WOODLAND ROAD,SAINT HELENA,CA,94574,37.023384,-76.326203,151930.9941,67564.10221,114847.6246,2.25,1.32
50014,SUTTER AMADOR HOSPITAL,200 MISSION BLVD,JACKSON,CA,95642,38.45794,-122.673407,47398.11172,67564.10221,114847.6246,0.7,0.41
50017,MERCY GENERAL HOSPITAL,4001 J ST,SACRAMENTO,CA,95819,38.5702596,-121.4524082,139235.8948,67564.10221,114847.6246,2.06,1.21
50018,PACIFIC ALLIANCE MEDICAL CENTER,531 W COLLEGE ST,LOS ANGELES,CA,90012,34.0650737,-118.2391378,31917.74377,67564.10221,114847.6246,0.47,0.28
50022,RIVERSIDE COMMUNITY HOSPITAL,4445 MAGNOLIA AVENUE,RIVERSIDE,CA,92501,33.9767808,-117.3816002,127911.7526,67564.10221,114847.6246,1.89,1.11
50024,PARADISE VALLEY HOSPITAL,2400 EAST 4TH ST,NATIONAL CITY,CA,91950,33.7715465,-118.1626828,37533.62973,67564.10221,114847.6246,0.56,0.33
50025,UNIVERSITY OF CALIFORNIA SAN DIEGO MEDICAL CENTER,200 WEST ARBOR DRIVE,SAN DIEGO,CA,92103,32.7545234,-117.1658067,79578.9011,67564.10221,114847.6246,1.18,0.69
50028,MAD RIVER COMMUNITY HOSPITAL,3800 JANES RD,ARCATA,CA,95521,40.8963361,-124.0916707,32307.003,67564.10221,114847.6246,0.48,0.28
50030,OROVILLE HOSPITAL,2767 OLIVE HIGHWAY,OROVILLE,CA,95966,39.5062597,-121.5410928,48407.9159,67564.10221,114847.6246,0.72,0.42
50038,SANTA CLARA VALLEY MEDICAL CENTER,751 SOUTH BASCOM AVENUE,SAN JOSE,CA,95128,37.3132072,-121.933458,78898.66606,67564.10221,114847.6246,1.17,0.69
50039,ENLOE MEDICAL CENTER,1531 ESPLANADE,CHICO,CA,95926,39.7421399,-121.8501891,90543.59112,67564.10221,114847.6246,1.34,0.79
50040,LAC/OLIVE VIEW-UCLA MEDICAL CENTER,14445 OLIVE VIEW DRIVE,SYLMAR,CA,91342,34.3259095,-118.4459572,42767.84944,67564.10221,114847.6246,0.63,0.37
50042,ST ELIZABETH COMMUNITY HOSPITAL,2550 SISTER MARY COLUMBA DRIVE,RED BLUFF,CA,96080,40.1485519,-122.2190196,42257.08655,67564.10221,114847.6246,0.63,0.37
50043,ALTA BATES SUMMIT MEDICAL CENTER,350 HAWTHORNE AVENUE,OAKLAND,CA,94609,37.8215453,-122.2630661,96002.39509,67564.10221,114847.6246,1.42,0.84
50045,EL CENTRO REGIONAL MEDICAL CENTER,1415 ROSS AVENUE,EL CENTRO,CA,92243,32.7842946,-96.8024557,50951.44267,67564.10221,114847.6246,0.75,0.44
50046,OJAI VALLEY COMMUNITY HOSPITAL,1306 MARICOPA HWY,OJAI,CA,93023,34.4428287,-119.2643526,30725.18182,67564.10221,114847.6246,0.45,0.27
50047,CALIFORNIA PACIFIC MEDICAL CTR-PACIFIC CAMPUS HOSP,2333 BUCHANAN STREET,SAN FRANCISCO,CA,94115,37.7907806,-122.4311512,111858.9721,67564.10221,114847.6246,1.66,0.97
50054,SAN GORGONIO MEMORIAL HOSPITAL,600 NORTH HIGHLAND SPRINGS AVENUE,BANNING,CA,92220,33.9317494,-116.9459031,39036.94841,67564.10221,114847.6246,0.58,0.34
50055,CALIFORNIA PACIFIC MEDICAL CTR - ST. LUKE'S CAMPUS,3555 CESAR CHAVEZ STREET,SAN FRANCISCO,CA,94110,37.7477035,-122.420695,71599.0909,67564.10221,114847.6246,1.06,0.62
50056,ANTELOPE VALLEY HOSPITAL,1600 W AVE J,LANCASTER,CA,93534,42.6517372,-92.0408296,74333.40225,67564.10221,114847.6246,1.1,0.65
50057,KAWEAH DELTA MEDICAL CENTER,400 W MINERAL KING AVE,VISALIA,CA,93291,36.3282957,-119.2949631,60135.07723,67564.10221,114847.6246,0.89,0.52
50058,GLENDALE MEM HOSPITAL & HLTH CENTER,1420 S CENTRAL AVE,GLENDALE,CA,91204,34.1281181,-118.2569119,89487.33972,67564.10221,114847.6246,1.32,0.78
50060,COMMUNITY REGIONAL MEDICAL CENTER,2823 FRESNO STREET,FRESNO,CA,93715,36.7428148,-119.7840085,83715.20858,67564.10221,114847.6246,1.24,0.73
50063,HOLLYWOOD PRESBYTERIAN MEDICAL CENTER,1300 N VERMONT AVE,LOS ANGELES,CA,90027,34.0962209,-118.2905784,69540.17788,67564.10221,114847.6246,1.03,0.61
50067,OAK VALLEY DISTRICT HOSPITAL,350 S OAK AVE,OAKDALE,CA,95361,32.8072346,-98.1129422,49120.6274,67564.10221,114847.6246,0.73,0.43
50069,ST JOSEPH HOSPITAL,1100 WEST STEWART DR,ORANGE,CA,92868,33.7819985,-117.8652001,87243.06996,67564.10221,114847.6246,1.29,0.76
50070,KAISER FOUNDATION HOSPITAL - SOUTH SAN FRANCISCO,1200 EL CAMINO REAL,SOUTH SAN FRANC,CA,94080,37.4545895,-122.1844939,66617.35714,67564.10221,114847.6246,0.99,0.58
50071,KAISER FOUNDATION HOSPITAL-SANTA CLARA,700 LAWRENCE EXPRESSWAY,SANTA CLARA,CA,95051,37.3358952,-121.99833,44287.78368,67564.10221,114847.6246,0.66,0.39
50072,KAISER FOUNDATION HOSPITAL - WALNUT CREEK,1425 S MAIN STREET,WALNUT CREEK,CA,94596,32.9086871,-97.2555907,37929.24167,67564.10221,114847.6246,0.56,0.33
50073,KAISER FOUNDATION HOSPITAL AND REHAB CENTER,975 SERENO DR,VALLEJO,CA,94589,38.12767,-122.2484432,34636.57529,67564.10221,114847.6246,0.51,0.3
50075,KAISER FOUNDATION HOSPITAL - OAKLAND/RICHMOND,275 W MACARTHUR BOULEVARD,OAKLAND,CA,94611,37.8148609,-122.2522097,33015.99427,67564.10221,114847.6246,0.49,0.29
50076,KAISER FOUNDATION HOSPITAL - SAN FRANCISCO,2425 GEARY BLVD,SAN FRANCISCO,CA,94115,37.7823277,-122.4432896,34225.9651,67564.10221,114847.6246,0.51,0.3
50077,SCRIPPS MERCY HOSPITAL,4077 5TH AVE,SAN DIEGO,CA,92103,32.7514518,-117.1600534,92557.04385,67564.10221,114847.6246,1.37,0.81
50078,PROVIDENCE LITTLE CO OF MARY MED CTR SAN PEDRO,1300 W 7TH ST,SAN PEDRO,CA,90732,33.7383615,-118.3050431,55965.9342,67564.10221,114847.6246,0.83,0.49
50079,DOCTORS MEDICAL CENTER - SAN PABLO,2000 VALE RD,SAN PABLO,CA,94806,36.1895965,-88.2543295,73990.68906,67564.10221,114847.6246,1.1,0.64
50082,ST JOHNS REGIONAL MEDICAL CENTER,1600 N ROSE AVE,OXNARD,CA,93030,34.2166424,-119.1556484,88575.45586,67564.10221,114847.6246,1.31,0.77
50084,ST JOSEPHS MEDICAL CENTER OF STOCKTON,1800 N CALIFORNIA ST,STOCKTON,CA,95204,37.9706584,-121.288784,116909.6784,67564.10221,114847.6246,1.73,1.02
50089,COMMUNITY HOSPITAL OF SAN BERNARDINO,1805 MEDICAL CENTER DRIVE,SAN BERNARDINO,CA,92411,34.1314087,-117.3217772,53910.35426,67564.10221,114847.6246,0.8,0.47
50090,SONOMA VALLEY HOSPITAL,347 ANDRIEUX ST,SONOMA,CA,95476,38.2881092,-122.4651441,48983.14041,67564.10221,114847.6246,0.72,0.43
50091,COMMUNITY HOSPITAL OF HUNTINGTON PARK,2623 E SLAUSON AVE,HUNTINGTON PARK,CA,90255,33.9896228,-118.2241554,53965.38633,67564.10221,114847.6246,0.8,0.47
50093,SAINT AGNES MEDICAL CENTER,1303 E HERNDON AVE,FRESNO,CA,93710,36.8352022,-119.7655278,68009.24377,67564.10221,114847.6246,1.01,0.59
50096,"DOCTORS HOSPITAL OF WEST COVINA, INC",725 S ORANGE AVE,WEST COVINA,CA,91790,34.071352,-117.944755,60777.6,67564.10221,114847.6246,0.9,0.53
50099,SAN ANTONIO COMMUNITY HOSPITAL,999 SAN BERNARDINO RD,UPLAND,CA,91786,34.1015661,-117.6378263,58015.8733,67564.10221,114847.6246,0.86,0.51
50100,SHARP MEMORIAL HOSPITAL,7901 FROST ST,SAN DIEGO,CA,92123,32.7994945,-117.1542381,118065.8035,67564.10221,114847.6246,1.75,1.03
50101,SUTTER SOLANO MEDICAL CENTER,300 HOSPITAL DR,VALLEJO,CA,94589,39.1393091,-76.6222356,79860.45137,67564.10221,114847.6246,1.18,0.7
50102,PARKVIEW COMMUNITY HOSPITAL MEDICAL CENTER,3865 JACKSON STREET,RIVERSIDE,CA,92503,33.9269682,-117.4398166,72546.85468,67564.10221,114847.6246,1.07,0.63
50103,WHITE MEMORIAL MEDICAL CENTER,1720 E CESAR AVENUE,LOS ANGELES,CA,90033,34.0492579,-118.2172453,94213.94239,67564.10221,114847.6246,1.39,0.82
50104,SAINT FRANCIS MEDICAL CENTER,3630 EAST IMPERIAL HIGHWAY,LYNWOOD,CA,90262,33.9296289,-118.203332,77694.42979,67564.10221,114847.6246,1.15,0.68
50107,MARIAN REGIONAL MEDICAL CENTER,1400 E CHURCH ST,SANTA MARIA,CA,93454,30.711188,-94.9214309,75117.47074,67564.10221,114847.6246,1.11,0.65
50108,SUTTER GENERAL HOSPITAL,2801 L STREET,SACRAMENTO,CA,95816,38.5720315,-121.4692411,107299.8506,67564.10221,114847.6246,1.59,0.93
50110,LOMPOC VALLEY MEDICAL CENTER,1515 E OCEAN AVENUE,LOMPOC,CA,93436,34.0125436,-118.495646,20864.46735,67564.10221,114847.6246,0.31,0.18
50111,TEMPLE COMMUNITY HOSPITAL,235 N HOOVER ST,LOS ANGELES,CA,90004,34.0755916,-118.2839436,40781.68632,67564.10221,114847.6246,0.6,0.36
50112,SANTA MONICA - UCLA MED CTR & ORTHOPAEDIC HOSPITAL,1250 16TH STREET,SANTA MONICA,CA,90404,37.7662756,-122.3997101,63923.84311,67564.10221,114847.6246,0.95,0.56
50113,SAN MATEO MEDICAL CENTER,222 W 39TH AVE,SAN MATEO,CA,94403,37.5312682,-122.2992982,15660.28571,67564.10221,114847.6246,0.23,0.14
50115,PALOMAR HEALTH DOWNTOWN CAMPUS,555 E VALLEY PARKWAY,ESCONDIDO,CA,92025,33.1251852,-117.0752748,73431.90972,67564.10221,114847.6246,1.09,0.64
50116,NORTHRIDGE HOSPITAL MEDICAL CENTER,18300 ROSCOE BLVD,NORTHRIDGE,CA,91325,34.2200955,-118.5331136,90018.0366,67564.10221,114847.6246,1.33,0.78
50118,DOCTORS HOSPITAL OF MANTECA,1205 E NORTH ST,MANTECA,CA,95336,44.0876216,-103.1915939,90550.14648,67564.10221,114847.6246,1.34,0.79
50121,ADVENTIST MEDICAL CENTER,115 MALL DRIVE,HANFORD,CA,93230,41.2454787,-76.8320471,40932.38566,67564.10221,114847.6246,0.61,0.36
50122,DAMERON HOSPITAL,525 WEST ACACIA STREET,STOCKTON,CA,95203,37.9615265,-121.3019237,123666.698,67564.10221,114847.6246,1.83,1.08
50124,USC VERDUGO HILLS HOSPITAL,1812 VERDUGO BLVD,GLENDALE,CA,91209,34.2045351,-118.216049,41524.62321,67564.10221,114847.6246,0.61,0.36
50125,REGIONAL MEDICAL CENTER OF SAN JOSE,225 N JACKSON AVENUE,SAN JOSE,CA,95116,37.3623124,-121.8493151,187199.6536,67564.10221,114847.6246,2.77,1.63
50126,VALLEY PRESBYTERIAN HOSPITAL,15107 VANOWEN ST,VAN NUYS,CA,91406,34.1950316,-118.4632934,53682.12763,67564.10221,114847.6246,0.79,0.47
50127,WOODLAND MEMORIAL HOSPITAL,1325 COTTONWOOD STREET,WOODLAND,CA,95695,38.664038,-121.79212,79352.67599,67564.10221,114847.6246,1.17,0.69
50128,TRI-CITY MEDICAL CENTER,4002 VISTA WAY,OCEANSIDE,CA,92056,33.1851545,-117.2902595,69118.42645,67564.10221,114847.6246,1.02,0.6
50129,ST BERNARDINE MEDICAL CENTER,2101 N WATERMAN AVE,SAN BERNARDINO,CA,92404,34.1348371,-117.2769883,74366.78548,67564.10221,114847.6246,1.1,0.65
50131,NOVATO COMMUNITY HOSPITAL,180 ROWLAND WAY,NOVATO,CA,94945,38.0993115,-122.5603633,56084.18897,67564.10221,114847.6246,0.83,0.49
50132,SAN GABRIEL VALLEY MEDICAL CENTER,438 W LAS TUNAS DRIVE,SAN GABRIEL,CA,91776,34.1007415,-118.1058755,111059.3453,67564.10221,114847.6246,1.64,0.97
50133,RIDEOUT MEMORIAL HOSPITAL,726 4TH ST,MARYSVILLE,CA,95901,36.852901,-121.409755,69644.70414,67564.10221,114847.6246,1.03,0.61
50135,SOUTHERN CALIFORNIA HOSPITAL AT HOLLYWOOD,6245 DE LONGPRE AVE,HOLLYWOOD,CA,90028,34.0964452,-118.3251439,60730.67713,67564.10221,114847.6246,0.9,0.53
50136,PETALUMA VALLEY HOSPITAL,400 N MCDOWELL BLVD,PETALUMA,CA,94954,38.25459,-122.6316537,70118.28067,67564.10221,114847.6246,1.04,0.61
50137,KAISER FOUNDATION HOSPITAL - PANORAMA CITY,13652 CANTARA ST,PANORAMA CITY,CA,91402,34.2187902,-118.4300562,18518.65385,67564.10221,114847.6246,0.27,0.16
50138,KAISER FOUNDATION HOSPITAL - LOS ANGELES,4867 SUNSET BLVD,LOS ANGELES,CA,90027,34.098423,-118.2944131,30180.23439,67564.10221,114847.6246,0.45,0.26
50139,KAISER FOUNDATION HOSPITAL - DOWNEY,9333 IMPERIAL HIGHWAY,DOWNEY,CA,90242,33.9192416,-118.1288114,26875.42686,67564.10221,114847.6246,0.4,0.23
50140,KAISER FOUNDATION HOSPITAL FONTANA,9961 SIERRA AVE,FONTANA,CA,92335,34.0727773,-117.435592,32141.97885,67564.10221,114847.6246,0.48,0.28
50145,COMMUNITY HOSPITAL OF THE MONTEREY PENINSULA,23625 W R HOLMAN HIGHWAY,MONTEREY,CA,93940,36.5790057,-121.913238,111464.6534,67564.10221,114847.6246,1.65,0.97
50149,CALIFORNIA HOSPITAL MEDICAL CENTER LA,1401 SOUTH GRAND AVENUE,LOS ANGELES,CA,90015,34.0373956,-118.2657814,61296.4949,67564.10221,114847.6246,0.91,0.53
50150,SIERRA NEVADA MEMORIAL HOSPITAL,155 GLASSON WAY,GRASS VALLEY,CA,95945,39.2281029,-121.0468913,58531.04134,67564.10221,114847.6246,0.87,0.51
50152,SAINT FRANCIS MEMORIAL HOSPITAL,900 HYDE ST,SAN FRANCISCO,CA,94109,37.7896472,-122.4166422,106824.2578,67564.10221,114847.6246,1.58,0.93
50153,O'CONNOR HOSPITAL,2105 FOREST AVENUE,SAN JOSE,CA,95128,37.3277552,-121.9383789,114403.2144,67564.10221,114847.6246,1.69,1
50158,ENCINO HOSPITAL MEDICAL CENTER,16237 VENTURA BLVD,ENCINO,CA,91436,34.15745,-118.4868009,55291.10563,67564.10221,114847.6246,0.82,0.48
50159,VENTURA COUNTY MEDICAL CENTER,3291 LOMA VISTA RD,VENTURA,CA,93003,34.2766626,-119.252029,48870.0111,67564.10221,114847.6246,0.72,0.43
50167,SAN JOAQUIN GENERAL HOSPITAL,500 W HOSPITAL ROAD,FRENCH CAMP,CA,95231,41.4916399,-112.0242206,68472.63819,67564.10221,114847.6246,1.01,0.6
50168,ST JUDE MEDICAL CENTER,101 E VALENCIA MESA DRIVE,FULLERTON,CA,92835,33.8941778,-117.9276156,85315.38236,67564.10221,114847.6246,1.26,0.74
50169,PRESBYTERIAN INTERCOMMUNITY HOSPITAL,12401 E WASHINGTON BLVD,WHITTIER,CA,90602,33.9970401,-118.4285156,100138.1233,67564.10221,114847.6246,1.48,0.87
50174,SANTA ROSA MEMORIAL HOSPITAL,1165 MONTGOMERY DR,SANTA ROSA,CA,95405,38.4437611,-122.701141,123447.9875,67564.10221,114847.6246,1.83,1.07
50179,EMANUEL MEDICAL CENTER,825 DELBON AVE,TURLOCK,CA,95382,37.511639,-120.837996,87165.37772,67564.10221,114847.6246,1.29,0.76
50180,JOHN MUIR MEDICAL CENTER - WALNUT CREEK CAMPUS,1601 YGNACIO VALLEY RD,WALNUT CREEK,CA,94598,37.9130871,-122.0408542,144164.6927,67564.10221,114847.6246,2.13,1.26
50189,GEORGE L MEE MEMORIAL HOSPITAL,300 CANAL STREET,KING CITY,CA,93930,40.7195555,-74.0025241,86606.87253,67564.10221,114847.6246,1.28,0.75
50191,ST MARY MEDICAL CENTER,1050 LINDEN AVE,LONG BEACH,CA,90813,39.751935,-84.149578,76404.68367,67564.10221,114847.6246,1.13,0.67
50192,ADVENTIST MEDICAL CENTER - REEDLEY,372 W CYPRESS AVE,REEDLEY,CA,93654,36.6080787,-119.4517641,20202.20066,67564.10221,114847.6246,0.3,0.18
50194,WATSONVILLE COMMUNITY HOSPITAL,75 NIELSON STREET,WATSONVILLE,CA,95076,36.9271746,-121.7930016,106382.4126,67564.10221,114847.6246,1.57,0.93
50195,WASHINGTON HOSPITAL,2000 MOWRY AVE,FREMONT,CA,94538,37.55726,-121.9797604,163772.0769,67564.10221,114847.6246,2.42,1.43
50197,SEQUOIA HOSPITAL,170 ALAMEDA DE LAS PULGAS,REDWOOD CITY,CA,94062,37.4797381,-122.2547914,158707.7648,67564.10221,114847.6246,2.35,1.38
50204,PALMDALE REGIONAL MEDICAL CENTER,38600 MEDICAL CENTER DRIVE,PALMDALE,CA,93552,34.582899,-118.1443812,68670.62994,67564.10221,114847.6246,1.02,0.6
50205,GLENDORA COMMUNITY HOSPITAL,150 WEST ROUTE 66,GLENDORA,CA,91740,34.1273073,-117.8650746,35989.58105,67564.10221,114847.6246,0.53,0.31
50211,ALAMEDA HOSPITAL,2070 CLINTON AVE,ALAMEDA,CA,94501,37.7628157,-122.2534154,47410.05654,67564.10221,114847.6246,0.7,0.41
50222,SHARP CHULA VISTA MEDICAL CENTER,751 MEDICAL CENTER COURT,CHULA VISTA,CA,91911,32.6187715,-117.0229286,94501.92339,67564.10221,114847.6246,1.4,0.82
50224,HOAG MEMORIAL HOSPITAL PRESBYTERIAN,ONE HOAG DRIVE,NEWPORT BEACH,CA,92663,33.6247428,-117.9300468,67345.10048,67564.10221,114847.6246,1,0.59
50225,FEATHER RIVER HOSPITAL,5974 PENTZ ROAD,PARADISE,CA,95969,39.7570818,-121.5701689,104948.8969,67564.10221,114847.6246,1.55,0.91
50226,AHMC ANAHEIM REGIONAL MEDICAL CENTER,1111 W LA PALMA AVENUE,ANAHEIM,CA,92801,33.8481751,-117.9345264,94706.56283,67564.10221,114847.6246,1.4,0.82
50228,SAN FRANCISCO GENERAL HOSPITAL,1001 POTRERO AVENUE,SAN FRANCISCO,CA,94110,37.7558047,-122.4044432,111801.2265,67564.10221,114847.6246,1.65,0.97
50230,GARDEN GROVE HOSPITAL & MEDICAL CENTER,12601 GARDEN GROVE BLVD,GARDEN GROVE,CA,92843,33.7748631,-117.9130532,52655.80092,67564.10221,114847.6246,0.78,0.46
50231,POMONA VALLEY HOSPITAL MEDICAL CENTER,1798 N GAREY AVE,POMONA,CA,91767,34.0760758,-117.7504494,129062.2297,67564.10221,114847.6246,1.91,1.12
50232,FRENCH HOSPITAL MEDICAL CENTER,1911 JOHNSON AVE,SAN LUIS OBISPO,CA,93401,42.7801113,-87.8053245,80558.16583,67564.10221,114847.6246,1.19,0.7
50234,SHARP CORONADO HOSPITAL AND HLTHCR CTR,250 PROSPECT PLACE,CORONADO,CA,92118,40.6773406,-73.9682099,56858.09265,67564.10221,114847.6246,0.84,0.5
50235,PROVIDENCE SAINT JOSEPH MEDICAL CTR,501 SOUTH BUENA VISTA,BURBANK,CA,91505,34.1558174,-118.3281063,129965.2036,67564.10221,114847.6246,1.92,1.13
50236,SIMI VALLEY HOSPITAL & HEALTH CARE SERVICES,2975 N SYCAMORE DR,SIMI VALLEY,CA,93065,36.3545189,-119.644219,66798.98538,67564.10221,114847.6246,0.99,0.58
50238,METHODIST HOSPITAL OF SOUTHERN CA,300 W HUNTINGTON DR,ARCADIA,CA,91006,34.1358091,-118.0408023,76026.18252,67564.10221,114847.6246,1.13,0.66
50239,GLENDALE ADVENTIST MEDICAL CENTER,1509 E WILSON TERRACE,GLENDALE,CA,91206,41.471232,-84.528486,110779.8839,67564.10221,114847.6246,1.64,0.96
50242,DOMINICAN HOSPITAL,1555 SOQUEL DRIVE,SANTA CRUZ,CA,95065,36.9901663,-121.9836669,92043.07639,67564.10221,114847.6246,1.36,0.8
50243,DESERT REGIONAL MEDICAL CENTER,1150 NORTH INDIAN CANYON DRIVE,PALM SPRINGS,CA,92262,33.8385169,-116.54408,131477.9908,67564.10221,114847.6246,1.95,1.14
50245,ARROWHEAD REGIONAL MEDICAL CENTER,400 NORTH PEPPER AVENUE,COLTON,CA,92324,34.0740531,-117.351059,45844.91608,67564.10221,114847.6246,0.68,0.4
50248,NATIVIDAD MEDICAL CENTER,1441 CONSTITUTION BOULEVARD,SALINAS,CA,93906,36.6973764,-121.6331609,70693.40383,67564.10221,114847.6246,1.05,0.62
50254,MARSHALL MEDICAL CENTER,1100 MARSHALL WAY,PLACERVILLE,CA,95667,38.7247393,-120.7914788,89472.56432,67564.10221,114847.6246,1.32,0.78
50257,GOOD SAMARITAN HOSPITAL,901 OLIVE DRIVE,BAKERSFIELD,CA,93308,35.4117079,-119.0395895,14502.98325,67564.10221,114847.6246,0.21,0.13
50261,SIERRA VIEW MEDICAL CENTER,465 W PUTNAM AVE,PORTERVILLE,CA,93257,41.0202479,-73.6426211,45420.28306,67564.10221,114847.6246,0.67,0.4
50262,RONALD REAGAN U C L A MEDICAL CENTER,757 WESTWOOD PLAZA,LOS ANGELES,CA,90095,34.0664494,-118.4463318,124232.8504,67564.10221,114847.6246,1.84,1.08
50272,REDLANDS COMMUNITY HOSPITAL,350 TERRACINA BLVD,REDLANDS,CA,92373,34.0365372,-117.2051741,71638.83418,67564.10221,114847.6246,1.06,0.62
50276,CONTRA COSTA REGIONAL MEDICAL CENTER,2500 ALHAMBRA AVE,MARTINEZ,CA,94553,38.006764,-122.1327937,32987.01744,67564.10221,114847.6246,0.49,0.29
50277,PACIFIC HOSPITAL OF LONG BEACH,2776 PACIFIC AVE,LONG BEACH,CA,90806,33.806891,-118.1930627,19494.78571,67564.10221,114847.6246,0.29,0.17
50278,PROVIDENCE HOLY CROSS MEDICAL CENTER,15031 RINALDI ST,MISSION HILLS,CA,91346,34.280154,-118.460335,114109.0567,67564.10221,114847.6246,1.69,0.99
50279,HI-DESERT MEDICAL CENTER,6601 WHITE FEATHER ROAD,JOSHUA TREE,CA,92252,34.1326967,-116.2762479,31188.99646,67564.10221,114847.6246,0.46,0.27
50280,MERCY MEDICAL CENTER REDDING,"2175 ROSALINE AVE, CLAIRMONT HGTS",REDDING,CA,96001,33.8353663,-84.3169589,81481.81399,67564.10221,114847.6246,1.21,0.71
50281,ALHAMBRA HOSPITAL MEDICAL CENTER,100 S RAYMOND AVE,ALHAMBRA,CA,91801,34.090234,-118.1439896,77379.32675,67564.10221,114847.6246,1.15,0.67
50283,VALLEYCARE MEDICAL CENTER,5555 WEST LAS POSITAS BOULEVARD,PLEASANTON,CA,94588,37.6944052,-121.8802082,94493.88897,67564.10221,114847.6246,1.4,0.82
50289,SETON MEDICAL CENTER,1900 SULLIVAN AVENUE,DALY CITY,CA,94015,37.6799404,-122.4742007,129722.1714,67564.10221,114847.6246,1.92,1.13
50290,PROVIDENCE SAINT JOHN'S HEALTH CENTER,2121 SANTA MONICA BLVD,SANTA MONICA,CA,90404,34.0307388,-118.4796069,82047.89291,67564.10221,114847.6246,1.21,0.71
50291,SUTTER SANTA ROSA REGIONAL HOSPITAL,30 MARK WEST SPRINGS ROAD,SANTA ROSA,CA,95403,38.4950726,-122.7519949,67539.69431,67564.10221,114847.6246,1,0.59
50292,RIVERSIDE COUNTY REGIONAL MEDICAL CENTER,26520 CACTUS AVENUE,MORENO VALLEY,CA,92555,33.9121777,-117.1960044,69886.42179,67564.10221,114847.6246,1.03,0.61
50295,MERCY HOSPITAL,2215 TRUXTUN AVENUE,BAKERSFIELD,CA,93301,35.3728466,-119.0277766,71875.70686,67564.10221,114847.6246,1.06,0.63
50296,HAZEL HAWKINS MEMORIAL HOSPITAL,911 SUNSET DRIVE,HOLLISTER,CA,95023,25.7050896,-80.2700616,43198.69805,67564.10221,114847.6246,0.64,0.38
50298,BARSTOW COMMUNITY HOSPITAL,820 E MOUNTAIN VIEW STREET,BARSTOW,CA,92311,34.892431,-117.017066,63608.50872,67564.10221,114847.6246,0.94,0.55
50300,ST MARY MEDICAL CENTER,18300 HIGHWAY 18,APPLE VALLEY,CA,92307,34.5418476,-117.2655636,70413.16694,67564.10221,114847.6246,1.04,0.61
50301,UKIAH VALLEY MEDICAL CENTER/HOSPITAL D,275 HOSPITAL DRIVE,UKIAH,CA,95482,39.1412021,-76.6280116,37245.76467,67564.10221,114847.6246,0.55,0.32
50305,ALTA BATES SUMMIT MEDICAL CENTER - ALTA BATES CAMP,2450 ASHBY AVE,BERKELEY,CA,94705,37.8554349,-122.2571526,81114.85139,67564.10221,114847.6246,1.2,0.71
50308,EL CAMINO HOSPITAL,2500 GRANT ROAD,MOUNTAIN VIEW,CA,94040,37.3694772,-122.0799117,105568.6898,67564.10221,114847.6246,1.56,0.92
50309,SUTTER ROSEVILLE MEDICAL CENTER,ONE MEDICAL PLAZA,ROSEVILLE,CA,95661,36.342745,-92.3935039,66214.34598,67564.10221,114847.6246,0.98,0.58
50313,SUTTER TRACY COMMUNITY HOSPITAL,1420 N TRACY BLVD,TRACY,CA,95376,37.7440837,-121.4343343,45943.40844,67564.10221,114847.6246,0.68,0.4
50315,KERN MEDICAL CENTER,1700 MOUNT VERNON AVENUE,BAKERSFIELD,CA,93306,35.3829347,-118.9705331,48497.25051,67564.10221,114847.6246,0.72,0.42
50320,HIGHLAND HOSPITAL,1411 E 31ST STREET,OAKLAND,CA,94602,37.7985416,-122.2316531,48309.04037,67564.10221,114847.6246,0.72,0.42
50324,SCRIPPS MEMORIAL HOSPITAL LA JOLLA,9888 GENESEE AVENUE,LA JOLLA,CA,92037,32.8851578,-117.2255426,115976.3499,67564.10221,114847.6246,1.72,1.01
50327,LOMA LINDA UNIVERSITY MEDICAL CENTER,11234 ANDERSON ST,LOMA LINDA,CA,92354,34.0494519,-117.2641774,130448.4581,67564.10221,114847.6246,1.93,1.14
50329,CORONA REGIONAL MEDICAL CENTER,800 SOUTH MAIN STREET,CORONA,CA,92882,36.6653017,-121.6571933,44854.88731,67564.10221,114847.6246,0.66,0.39
50334,SALINAS VALLEY MEMORIAL HOSPITAL,450 EAST ROMIE LANE,SALINAS,CA,93901,36.6593319,-121.646662,84340.64345,67564.10221,114847.6246,1.25,0.73
50335,SONORA REGIONAL MEDICAL CENTER,1000 GREENLEY ROAD,SONORA,CA,95370,37.9772338,-120.3712182,72209.08358,67564.10221,114847.6246,1.07,0.63
50336,LODI MEMORIAL HOSPITAL,975 S FAIRMONT AVENUE,LODI,CA,95240,38.121858,-121.286652,115656.4014,67564.10221,114847.6246,1.71,1.01
50342,PIONEERS MEMORIAL HEALTHCARE DISTRICT,207 WEST LEGION ROAD,BRAWLEY,CA,92227,32.9591125,-115.5539066,46303.54618,67564.10221,114847.6246,0.69,0.4
50348,UNIVERSITY OF CALIFORNIA IRVINE MED CENTER,101 CITY DRIVE SOUTH,ORANGE,CA,92868,33.7864819,-117.8897886,131844.6517,67564.10221,114847.6246,1.95,1.15
50350,BEVERLY HOSPITAL,309 W BEVERLY BLVD,MONTEBELLO,CA,90640,34.015015,-118.100636,33237.0432,67564.10221,114847.6246,0.49,0.29
50351,TORRANCE MEMORIAL MEDICAL CENTER,3330 LOMITA BLVD,TORRANCE,CA,90509,33.8119157,-118.3434945,98313.24477,67564.10221,114847.6246,1.46,0.86
50352,BARTON MEMORIAL HOSPITAL,2170 SOUTH AVENUE,SOUTH LAKE TAHO,CA,96150,41.0781353,-80.6462656,44075.547,67564.10221,114847.6246,0.65,0.38
50353,PROVIDENCE LITTLE COMPANY OF MARY MED CTR TORRANCE,4101 TORRANCE BLVD,TORRANCE,CA,90503,33.8385387,-118.3571537,86744.40914,67564.10221,114847.6246,1.28,0.76
50357,GOLETA VALLEY COTTAGE HOSPITAL,351 S PATTERSON AVE,SANTA BARBARA,CA,93111,34.4338579,-119.8103152,57494.93998,67564.10221,114847.6246,0.85,0.5
50359,TULARE REGIONAL MEDICAL CENTER,869 CHERRY AVENUE,TULARE,CA,93274,33.77807,-118.1676827,30373.62658,67564.10221,114847.6246,0.45,0.26
50360,MARIN GENERAL HOSPITAL,"250 BON AIR ROAD, PO BOX 8010",GREENBRAE,CA,94904,37.9473603,-122.5360275,111741.5104,67564.10221,114847.6246,1.65,0.97
50367,NORTHBAY MEDICAL CENTER,1200 B  GALE WILSON BLVD,FAIRFIELD,CA,94533,38.2618553,-122.0476112,165693.8961,67564.10221,114847.6246,2.45,1.44
50373,LAC+USC MEDICAL CENTER,"1200 N STATE ST, ROOM C2K100",LOS ANGELES,CA,90033,32.3145426,-90.1776866,37939.13407,67564.10221,114847.6246,0.56,0.33
50376,LAC/HARBOR-UCLA MED CENTER,1000 W CARSON ST,TORRANCE,CA,90509,40.441031,-80.020347,63069.67039,67564.10221,114847.6246,0.93,0.55
50378,PACIFICA HOSPITAL OF THE VALLEY,9449 SAN FERNANDO RD,SUN VALLEY,CA,91352,34.2400992,-118.3964962,28815.37878,67564.10221,114847.6246,0.43,0.25
50380,GOOD SAMARITAN HOSPITAL,2425 SAMARITAN DRIVE,SAN JOSE,CA,95124,37.2520715,-121.9463305,191544.7254,67564.10221,114847.6246,2.84,1.67
50382,CITRUS VALLEY MEDICAL CENTER-IC CAMPUS,210 W  SAN BERNARDINO ROAD,COVINA,CA,91723,34.0880807,-117.8934248,46103.57795,67564.10221,114847.6246,0.68,0.4
50385,PALM DRIVE HOSPITAL,501 PETALUMA AVE,SEBASTOPOL,CA,95472,38.397346,-122.8194056,65234.50908,67564.10221,114847.6246,0.97,0.57
50390,HEMET VALLEY MEDICAL CENTER,1117 EAST DEVONSHIRE,HEMET,CA,92543,33.7501053,-116.9601344,58101.81673,67564.10221,114847.6246,0.86,0.51
50393,PIH HOSPITAL - DOWNEY,11500 BROOKSHIRE AVENUE,DOWNEY,CA,90241,33.9343061,-118.1309876,79748.03481,67564.10221,114847.6246,1.18,0.69
50394,COMMUNITY MEMORIAL HOSPITAL SAN BUENAVENTURA,147 N BRENT ST,VENTURA,CA,93003,34.2745632,-119.2579873,74003.59635,67564.10221,114847.6246,1.1,0.64
50396,SANTA BARBARA COTTAGE HOSPITAL,400 WEST PUEBLO,SANTA BARBARA,CA,93102,38.2706389,-104.6161024,63144.00068,67564.10221,114847.6246,0.93,0.55
50407,CHINESE HOSPITAL,845 JACKSON ST,SAN FRANCISCO,CA,94133,37.7954781,-122.4091831,28093.44993,67564.10221,114847.6246,0.42,0.24
50411,KAISER FOUNDATION HOSPITAL - SOUTH BAY,25825 SOUTH VERMONT AVENUE,HARBOR CITY,CA,90710,33.7887411,-118.2957229,26410.14762,67564.10221,114847.6246,0.39,0.23
50414,MERCY HOSPITAL OF FOLSOM,1650 CREEKSIDE DRIVE,FOLSOM,CA,95630,38.6701979,-121.1460932,60074.76988,67564.10221,114847.6246,0.89,0.52
50417,SUTTER COAST HOSPITAL,800 E WASHINGTON BLVD,CRESCENT CITY,CA,95531,41.2501371,-111.9692687,34054.33212,67564.10221,114847.6246,0.5,0.3
50423,PALO VERDE HOSPITAL,250 NORTH FIRST STREET,BLYTHE,CA,92225,37.3394003,-121.8930172,34084.78788,67564.10221,114847.6246,0.5,0.3
50424,SCRIPPS GREEN HOSPITAL,10666 NORTH TORREY PINES ROAD,LA JOLLA,CA,92037,32.8972071,-117.2427862,129072.7086,67564.10221,114847.6246,1.91,1.12
50425,KAISER FOUNDATION HOSPITAL - SACRAMENTO,2025 MORSE AVENUE,SACRAMENTO,CA,95825,38.6018604,-121.3919082,44704.49883,67564.10221,114847.6246,0.66,0.39
50426,WEST ANAHEIM MEDICAL CENTER,3033 W ORANGE AVENUE,ANAHEIM,CA,92804,33.8254664,-117.9949153,60546.40628,67564.10221,114847.6246,0.9,0.53
50434,COLUSA REGIONAL MEDICAL CENTER,199 EAST WEBSTER ST,COLUSA,CA,95932,39.2064234,-122.0009014,32465.03826,67564.10221,114847.6246,0.48,0.28
50435,FALLBROOK HOSPITAL DISTRICT,624 E ELDER ST,FALLBROOK,CA,92028,33.3808274,-117.2445918,62080.33571,67564.10221,114847.6246,0.92,0.54
50438,HUNTINGTON MEMORIAL HOSPITAL,100 W  CALIFORNIA BLVD,PASADENA,CA,91109,34.133639,-118.152753,85974.42726,67564.10221,114847.6246,1.27,0.75
50441,STANFORD HOSPITAL,300 PASTEUR DRIVE,STANFORD,CA,94305,37.4331189,-122.1753791,236362.0567,67564.10221,114847.6246,3.5,2.06
50444,MERCY MEDICAL CENTER,333 MERCY AVENUE,MERCED,CA,95340,37.339977,-120.4672958,67304.17501,67564.10221,114847.6246,1,0.59
50455,SAN JOAQUIN COMMUNITY HOSPITAL,2615 CHESTER AVENUE,BAKERSFIELD,CA,93301,35.3833475,-119.0205429,72612.40283,67564.10221,114847.6246,1.07,0.63
50457,ST MARY'S MEDICAL CENTER,450 STANYAN ST,SAN FRANCISCO,CA,94117,37.7740462,-122.4536477,94051.29083,67564.10221,114847.6246,1.39,0.82
50464,DOCTORS MEDICAL CENTER,1441 FLORIDA AVENUE,MODESTO,CA,95350,37.6652146,-120.9972995,200137.7582,67564.10221,114847.6246,2.96,1.74
50468,MEMORIAL HOSPITAL OF GARDENA,1145 W REDONDO BEACH BLVD,GARDENA,CA,90247,33.8929624,-118.294803,54775.91142,67564.10221,114847.6246,0.81,0.48
50471,GOOD SAMARITAN HOSPITAL,1225 WILSHIRE BOULEVARD,LOS ANGELES,CA,90017,34.0259525,-118.4902815,99128.46144,67564.10221,114847.6246,1.47,0.86
50481,WEST HILLS HOSPITAL & MEDICAL CENTER,7300 MEDICAL CENTER DR,WEST HILLS,CA,91307,34.2029255,-118.6287791,134830.4379,67564.10221,114847.6246,2,1.17
50485,LONG BEACH MEMORIAL MEDICAL CENTER,2801 ATLANTIC AVE,LONG BEACH,CA,90806,30.6682657,-81.4326347,81327.47044,67564.10221,114847.6246,1.2,0.71
50488,EDEN MEDICAL CENTER,20103 LAKE CHABOT ROAD,CASTRO VALLEY,CA,94546,37.6983405,-122.0896915,80446.01834,67564.10221,114847.6246,1.19,0.7
50492,CLOVIS COMMUNITY MEDICAL CENTER,2755 HERNDON AVE,CLOVIS,CA,93611,36.8390429,-119.660354,53761.50987,67564.10221,114847.6246,0.8,0.47
50496,JOHN MUIR MEDICAL CENTER - CONCORD CAMPUS,2540 EAST ST,CONCORD,CA,94520,39.1968421,-94.6818582,162938.7633,67564.10221,114847.6246,2.41,1.42
50498,SUTTER AUBURN FAITH HOSPITAL,11815 EDUCATION STREET,AUBURN,CA,95603,38.9452184,-121.1009212,43670.65905,67564.10221,114847.6246,0.65,0.38
50502,SAINT VINCENT MEDICAL CENTER,2131 W 3RD ST,LOS ANGELES,CA,90057,39.7535825,-84.2298287,87079.96289,67564.10221,114847.6246,1.29,0.76
50503,SCRIPPS MEMORIAL HOSPITAL - ENCINITAS,354 SANTA FE DRIVE,ENCINITAS,CA,92024,33.0369008,-117.2839126,65864.31579,67564.10221,114847.6246,0.97,0.57
50506,SIERRA VISTA REGIONAL MEDICAL CENTER,1010 MURRAY ST,SAN LUIS OBISPO,CA,93405,37.8261714,-88.4361464,88873.22188,67564.10221,114847.6246,1.32,0.77
50510,KAISER FOUNDATION HOSPITAL,99 MONTECILLO RD,SAN RAFAEL,CA,94903,38.0043452,-122.5549508,39172.24206,67564.10221,114847.6246,0.58,0.34
50512,KAISER FOUNDATION HOSPITAL - FREMONT,39400 PASEO PADRE PKWY,FREMONT,CA,94538,37.5524244,-121.974401,34714.77733,67564.10221,114847.6246,0.51,0.3
50515,KAISER FOUNDATION HOSPITAL - SAN DIEGO,4647 ZION AVE,SAN DIEGO,CA,92120,32.7913395,-117.0951878,25249.08012,67564.10221,114847.6246,0.37,0.22
50516,MERCY SAN JUAN MEDICAL CENTER,6501 COYLE AVE,CARMICHAEL,CA,95608,38.6696228,-121.3140357,101308.088,67564.10221,114847.6246,1.5,0.88
50517,VICTOR VALLEY GLOBAL MEDICAL CENTER,15248 11TH ST,VICTORVILLE,CA,92392,42.1508434,-89.0770311,45184.07559,67564.10221,114847.6246,0.67,0.39
50523,SUTTER DELTA MEDICAL CENTER,3901 LONE TREE WAY,ANTIOCH,CA,94509,37.9825884,-121.8029543,58805.09646,67564.10221,114847.6246,0.87,0.51
50526,HUNTINGTON BEACH HOSPITAL,17772 BEACH BLVD,HUNTINGTON BEAC,CA,92647,33.70364,-117.986656,49658.56169,67564.10221,114847.6246,0.73,0.43
50528,MEMORIAL HOSPITAL LOS BANOS,520 WEST I ST,LOS BANOS,CA,93635,42.04023,-71.365568,44225.36175,67564.10221,114847.6246,0.65,0.39
50534,JOHN F KENNEDY MEMORIAL HOSPITAL,47111 MONROE STREET,INDIO,CA,92201,33.7062168,-116.2354774,115467.241,67564.10221,114847.6246,1.71,1.01
50537,SUTTER DAVIS HOSPITAL,2000 SUTTER PLACE,DAVIS,CA,95616,38.5626044,-121.7708959,40531.33609,67564.10221,114847.6246,0.6,0.35
50541,KAISER FOUNDATION HOSPITAL - REDWOOD CITY,1100 VETERANS BOULEVARD,REDWOOD CITY,CA,94063,37.4891185,-122.2251548,41706.97304,67564.10221,114847.6246,0.62,0.36
50543,COLLEGE HOSPITAL COSTA MESA,301 VICTORIA STREET,COSTA MESA,CA,92627,33.651829,-117.91198,24515.16014,67564.10221,114847.6246,0.36,0.21
50546,PORTERVILLE DEVELOPMENTAL CENTER,26501 AVENUE 140,PORTERVILLE,CA,93257,48.7828443,-96.3166808,48746.09756,67564.10221,114847.6246,0.72,0.42
50548,FAIRVIEW DEVELOPMENTAL CENTER,2501 HARBOR BOULEVARD,COSTA MESA,CA,92626,33.663336,-117.922388,22894.61538,67564.10221,114847.6246,0.34,0.2
50549,LOS ROBLES HOSPITAL & MEDICAL CENTER,215 W JANSS RD,THOUSAND OAKS,CA,91360,34.2069857,-118.8831028,131368.2931,67564.10221,114847.6246,1.94,1.14
50551,LOS ALAMITOS MEDICAL CENTER,3751 KATELLA AVENUE,LOS ALAMITOS,CA,90720,33.8043758,-118.0671158,85928.39651,67564.10221,114847.6246,1.27,0.75
50557,MEMORIAL  MEDICAL CENTER,1700 COFFEE RD,MODESTO,CA,95355,37.6687592,-120.9737865,102131.9722,67564.10221,114847.6246,1.51,0.89
50561,KAISER FOUNDATION HOSPITAL - WEST LA,6041 CADILLAC AVE,LOS ANGELES,CA,90034,34.0383466,-118.3759001,29039.78903,67564.10221,114847.6246,0.43,0.25
50567,MISSION HOSPITAL REGIONAL MED CENTER,27700 MEDICAL CENTER RD,MISSION VIEJO,CA,92691,33.5610516,-117.6654654,76273.4652,67564.10221,114847.6246,1.13,0.66
50568,MADERA COMMUNITY HOSPITAL,1250 E ALMOND AVE,MADERA,CA,93637,36.9440246,-120.0443662,25436.45891,67564.10221,114847.6246,0.38,0.22
50570,FOUNTAIN VALLEY REGIONAL HOSPITAL & MEDICAL CENTER,17100 EUCLID STREET,FOUNTAIN VALLEY,CA,92708,33.7150242,-117.9357865,102739.7758,67564.10221,114847.6246,1.52,0.89
50573,EISENHOWER MEDICAL CENTER,39-000 BOB HOPE DRIVE,RANCHO MIRAGE,CA,92270,33.7426321,-116.4071663,101921.7821,67564.10221,114847.6246,1.51,0.89
50575,GARDENS REGIONAL HOSPITAL AND MEDICAL CENTER,21530 S PIONEER BLVD,HAWAIIAN GARDEN,CA,90716,33.8335913,-118.0797978,36722.70714,67564.10221,114847.6246,0.54,0.32
50580,LA PALMA INTERCOMMUNITY HOSPITAL,7901 WALKER STREET,LA PALMA,CA,90623,33.847533,-118.038414,40726.4822,67564.10221,114847.6246,0.6,0.35
50581,LAKEWOOD REGIONAL MEDICAL CENTER,3700 E SOUTH ST,LAKEWOOD,CA,90712,40.5823786,-98.3253842,92047.8574,67564.10221,114847.6246,1.36,0.8
50586,CHINO VALLEY MEDICAL CENTER,5451 WALNUT AVE,CHINO,CA,91710,34.0255174,-117.6858572,49771.35267,67564.10221,114847.6246,0.74,0.43
50588,SAN DIMAS COMMUNITY HOSPITAL,1350 W COVINA BLVD,SAN DIMAS,CA,91773,34.0976119,-117.8346593,58964.85418,67564.10221,114847.6246,0.87,0.51
50589,PLACENTIA LINDA HOSPITAL,1301 N ROSE DRIVE,PLACENTIA,CA,92870,33.887072,-117.8434267,59630.6324,67564.10221,114847.6246,0.88,0.52
50590,METHODIST HOSPITAL OF SACRAMENTO,7500 HOSPITAL DRIVE,SACRAMENTO,CA,95823,40.1013876,-83.1646727,71722.53604,67564.10221,114847.6246,1.06,0.62
50597,FOOTHILL PRESBYTERIAN HOSPITAL,250 S GRAND AVE,GLENDORA,CA,91740,34.0534223,-118.2504046,32537.41995,67564.10221,114847.6246,0.48,0.28
50599,UNIVERSITY OF CALIFORNIA DAVIS MEDICAL CENTER,2315 STOCKTON BOULEVARD,SACRAMENTO,CA,95817,38.5549383,-121.4567508,172119.4745,67564.10221,114847.6246,2.55,1.5
50603,SADDLEBACK MEMORIAL MEDICAL CENTER,24451 HEALTH CENTER DRIVE,LAGUNA HILLS,CA,92653,33.6089013,-117.7087247,63370.56508,67564.10221,114847.6246,0.94,0.55
50604,KAISER FOUNDATION HOSPITAL-SAN JOSE,250 HOSPITAL PARKWAY,SAN JOSE,CA,95119,37.2397615,-121.8002485,37862.2497,67564.10221,114847.6246,0.56,0.33
50608,DELANO REGIONAL MEDICAL CENTER,1401 GARCES HIGHWAY,DELANO,CA,93215,35.7623351,-119.238952,28969.78949,67564.10221,114847.6246,0.43,0.25
50609,KAISER FOUNDATION HOSPITAL - ANAHEIM,3440 E LA PALMA AVE,ANAHEIM,CA,92806,33.8520823,-117.8441325,29480.66778,67564.10221,114847.6246,0.44,0.26
50616,ST JOHNS PLEASANT VALLEY HOSPITAL,2309 ANTONIO AVE,CAMARILLO,CA,93010,36.5431338,-121.9312717,74253.86725,67564.10221,114847.6246,1.1,0.65
50624,HENRY MAYO NEWHALL  HOSPITAL,23845  MCBEAN PKWY,VALENCIA,CA,91355,34.3978238,-118.5536809,67022.59056,67564.10221,114847.6246,0.99,0.58
50625,CEDARS-SINAI MEDICAL CENTER,8700 BEVERLY BLVD,LOS ANGELES,CA,90048,34.075232,-118.3801756,198894.1825,67564.10221,114847.6246,2.94,1.73
50633,TWIN CITIES COMMUNITY HOSPITAL,1100 LAS TABLAS RD,TEMPLETON,CA,93465,35.5553302,-120.7197485,74235.23154,67564.10221,114847.6246,1.1,0.65
50636,POMERADO HOSPITAL,15615 POMERADO ROAD,POWAY,CA,92064,32.9965785,-117.0562883,70730.64481,67564.10221,114847.6246,1.05,0.62
50641,EAST LOS ANGELES DOCTORS HOSPITAL,4060 WHITTIER BLVD,LOS ANGELES,CA,90023,34.0237682,-118.1841496,77214.83107,67564.10221,114847.6246,1.14,0.67
50663,LOS ANGELES COMMUNITY HOSPITAL,4081 E OLYMPIC BLVD,LOS ANGELES,CA,90023,34.0193964,-118.1867199,38576.59237,67564.10221,114847.6246,0.57,0.34
50674,KAISER FOUNDATION HOSP SO SACRAMENTO,6600 BRUCEVILLE ROAD,SACRAMENTO,CA,95823,38.4699104,-121.4216412,37664.83863,67564.10221,114847.6246,0.56,0.33
50677,KAISER FOUNDATION HOSPITAL - WOODLAND HILLS,5601 DE SOTO,WOODLAND HILLS,CA,91367,34.1703846,-118.5899359,25081.35985,67564.10221,114847.6246,0.37,0.22
50678,ORANGE COAST MEMORIAL MEDICAL CENTER,9920 TALBERT AVENUE,FOUNTAIN VALLEY,CA,92708,33.7003907,-117.9556226,57688.78181,67564.10221,114847.6246,0.85,0.5
50684,MENIFEE VALLEY MEDICAL CENTER,28400 MCCALL B0ULEVARD,SUN CITY,CA,92585,33.7194657,-117.1645046,43600.69379,67564.10221,114847.6246,0.65,0.38
50686,"KAISER FOUNDATION HOSPITAL, RIVERSIDE",10800 MAGNOLIA AVENUE,RIVERSIDE,CA,92505,33.9046214,-117.4690484,40578.8989,67564.10221,114847.6246,0.6,0.35
50688,SAINT LOUISE REGIONAL HOSPITAL,9400 NO NAME UNO,GILROY,CA,95020,37.0365453,-121.5713901,74192.88901,67564.10221,114847.6246,1.1,0.65
50689,SAN RAMON REGIONAL MEDICAL CTR,6001 NORRIS CANYON ROAD,SAN RAMON,CA,94583,37.775892,-121.958214,86294.88912,67564.10221,114847.6246,1.28,0.75
50690,KAISER FOUNDATION HOSPITAL-SANTA ROSA,401 BICENTENNIAL WAY,SANTA ROSA,CA,95403,38.47212,-122.7270141,37102.17172,67564.10221,114847.6246,0.55,0.32
50696,KECK HOSPITAL OF USC,1500 SAN PABLO ST,LOS ANGELES,CA,90033,34.0619631,-118.2014203,203763.6318,67564.10221,114847.6246,3.02,1.77
50697,PATIENTS' HOSPITAL OF REDDING,2900 EUREKA WAY,REDDING,CA,96001,40.5859177,-122.4167985,36154.94231,67564.10221,114847.6246,0.54,0.31
50701,SOUTHWEST HEALTHCARE SYSTEM,25500 MEDICAL CENTER DRIVE,MURRIETA,CA,92562,33.5589878,-117.1839316,46216.12592,67564.10221,114847.6246,0.68,0.4
50704,MISSION COMMUNITY HOSPITAL,14850 ROSCOE BLVD,PANORAMA CITY,CA,91402,34.2204258,-118.4565487,38759.50618,67564.10221,114847.6246,0.57,0.34
50708,FRESNO SURGICAL HOSPITAL,6125 NORTH FRESNO ST,FRESNO,CA,93710,36.825095,-119.7820106,55365.72844,67564.10221,114847.6246,0.82,0.48
50709,DESERT VALLEY HOSPITAL,16850 BEAR VALLEY RD,VICTORVILLE,CA,92395,34.4717272,-117.2977603,40168.07108,67564.10221,114847.6246,0.59,0.35
50710,KAISER FOUNDATION HOSPITAL - FRESNO,7300 NORTH FRESNO ST,FRESNO,CA,93720,36.8423418,-119.7804757,63830.11765,67564.10221,114847.6246,0.94,0.56
50714,SUTTER MATERNITY & SURGERY CENTER OF SANTA CRUZ,2900 CHANTICLEER AVENUE,SANTA CRUZ,CA,95065,36.9877888,-121.9774566,60065.43333,67564.10221,114847.6246,0.89,0.52
50717,LAC/RANCHO LOS AMIGOS NATIONAL REHABILITATION  CTR,7601 EAST IMPERIAL HIGHWAY,DOWNEY,CA,90242,33.9311569,-118.3828842,89777.53062,67564.10221,114847.6246,1.33,0.78
50723,KAISER FOUNDATION HOSPITAL - BALDWIN PARK,1011 BALDWIN PARK BLVD,BALDWIN PARK,CA,91706,34.0655016,-117.9864524,23992.30208,67564.10221,114847.6246,0.36,0.21
50724,BAKERSFIELD HEART HOSPITAL,3001 SILLECT AVENUE,BAKERSFIELD,CA,93308,35.3848085,-119.0399564,64006.37319,67564.10221,114847.6246,0.95,0.56
50726,STANISLAUS SURGICAL HOSPITAL,1421 OAKDALE ROAD,MODESTO,CA,95355,37.6647944,-120.9585188,48008.06154,67564.10221,114847.6246,0.71,0.42
50727,COMMUNITY HOSPITAL OF LONG BEACH,1720 TERMINO AVENUE,LONG BEACH,CA,90804,33.7884737,-118.1452922,59656.45409,67564.10221,114847.6246,0.88,0.52
50732,FRESNO HEART AND SURGICAL HOSPITAL,15 EAST AUDUBON DRIVE,FRESNO,CA,93720,36.859923,-119.788578,62837.64558,67564.10221,114847.6246,0.93,0.55
50735,WHITTIER HOSPITAL MEDICAL CENTER,9080 COLIMA RD,WHITTIER,CA,90605,33.9500226,-118.0034266,77042.79754,67564.10221,114847.6246,1.14,0.67
50736,MONTEREY PARK HOSPITAL,900 S ATLANTIC BLVD,MONTEREY PARK,CA,91754,34.0494129,-118.1383147,97611.80986,67564.10221,114847.6246,1.44,0.85
50737,GARFIELD MEDICAL CENTER,525 N GARFIELD AVE,MONTEREY PARK,CA,91754,34.0235121,-118.1336279,171862.6342,67564.10221,114847.6246,2.54,1.5
50738,GREATER EL MONTE COMMUNITY HOSPITAL,1701 SANTA ANITA AVE,SOUTH EL MONTE,CA,91733,34.0481521,-118.043372,90730.63746,67564.10221,114847.6246,1.34,0.79
50739,CENTINELA HOSPITAL MEDICAL CENTER,555 EAST HARDY STREET,INGLEWOOD,CA,90301,33.9507827,-118.3482572,87047.26248,67564.10221,114847.6246,1.29,0.76
50740,MARINA DEL REY HOSPITAL,4650 LINCOLN BLVD,MARINA DEL REY,CA,90291,33.9821254,-118.4392607,66879.79922,67564.10221,114847.6246,0.99,0.58
50742,OLYMPIA MEDICAL CENTER,5900 WEST OLYMPIC BOULEVARD,LOS ANGELES,CA,90036,34.0571449,-118.3602519,87936.09793,67564.10221,114847.6246,1.3,0.77
50744,WESTERN MEDICAL CENTER  ANAHEIM,1025 S ANAHEIM BLVD,ANAHEIM,CA,92805,33.8198344,-117.9094512,41793.33333,67564.10221,114847.6246,0.62,0.36
50745,CHAPMAN MEDICAL CENTER,2601 E CHAPMAN AVE,ORANGE,CA,92869,33.7885118,-117.8263367,48221.95626,67564.10221,114847.6246,0.71,0.42
50746,WESTERN MEDICAL CENTER SANTA ANA,1001 NORTH TUSTIN AVENUE,SANTA ANA,CA,92705,33.7542343,-117.8328997,79457.00738,67564.10221,114847.6246,1.18,0.69
50747,COASTAL COMMUNITIES HOSPITAL,2701 S BRISTOL ST,SANTA ANA,CA,92704,33.7111431,-117.8846271,91357.88163,67564.10221,114847.6246,1.35,0.8
50748,KAISER FOUNDATION HOSPITAL MANTECA,1777 WEST YOSEMITE AVE,MANTECA,CA,95337,37.79803,-121.246197,50481.14286,67564.10221,114847.6246,0.75,0.44
50754,MENLO PARK SURGICAL HOSPITAL,570 WILLOW ROAD,MENLO PARK,CA,94025,37.4615128,-122.1590322,55846.33333,67564.10221,114847.6246,0.83,0.49
50755,SHERMAN OAKS HOSPITAL,4929 VAN NUYS BLVD,SHERMAN OAKS,CA,91403,34.1602305,-118.4496328,47444.92872,67564.10221,114847.6246,0.7,0.41
50757,ALVARADO HOSPITAL MEDICAL CENTER,6655 ALVARADO ROAD,SAN DIEGO,CA,92120,32.7772425,-117.057335,65983.40783,67564.10221,114847.6246,0.98,0.57
50758,MONTCLAIR HOSPITAL MEDICAL CENTER,5000 SAN BERNARDINO ST,MONTCLAIR,CA,91763,34.0787027,-117.6959434,43882.39276,67564.10221,114847.6246,0.65,0.38
50760,KAISER FOUNDATION HOSPITAL - ANTIOCH,4501 SAND CREEK ROAD,ANTIOCH,CA,94531,37.9508561,-121.7752716,43358.12426,67564.10221,114847.6246,0.64,0.38
50761,PROVIDENCE TARZANA MEDICAL CENTER,18321 CLARK STREET,TARZANA,CA,91356,34.1703687,-118.5319132,97144.87042,67564.10221,114847.6246,1.44,0.85
50763,SILVER LAKE MEDICAL CENTER,1711 WEST TEMPLE STREET,LOS ANGELES,CA,90026,34.0696967,-118.2635015,33979.40589,67564.10221,114847.6246,0.5,0.3
50764,SHASTA REGIONAL MEDICAL CENTER,1100 BUTTE ST,REDDING,CA,96001,40.5855146,-122.3877763,79663.48534,67564.10221,114847.6246,1.18,0.69
50765,KAISER FOUNDATION HOSPITAL-MORENO VALLEY,27300 IRIS AVENUE,MORENO VALLEY,CA,92555,33.897404,-117.186026,36827.54545,67564.10221,114847.6246,0.55,0.32
50766,SUTTER SURGICAL HOSPITAL - NORTH VALLEY,455 PLUMAS BLVD,YUBA CITY,CA,95991,39.1317646,-121.6133756,85334.14662,67564.10221,114847.6246,1.26,0.74
50767,KAISER FOUNDATION HOSPITAL - VACAVILLE,1 QUALITY DRIVE,VACAVILLE,CA,95688,38.3885135,-121.9380985,38011.34943,67564.10221,114847.6246,0.56,0.33
50769,HOAG ORTHOPEDIC INSTITUTE,16250 SAND CANYON AVENUE,IRVINE,CA,92618,33.6607471,-117.7724594,84655.09631,67564.10221,114847.6246,1.25,0.74
50770,LOMA LINDA UNIVERSITY MEDICAL CENTER-MURRIETA,28062 BAXTER ROAD,MURRIETA,CA,92563,33.6145875,-117.1691492,62490.10723,67564.10221,114847.6246,0.92,0.54
50771,COAST PLAZA HOSPITAL,13100 STUDERBAKER ROAD,NORWALK,CA,90650,33.9125716,-118.0984864,54442.93023,67564.10221,114847.6246,0.81,0.47
50772,KAISER FOUNDATION HOSPITAL - ROSEVILLE,1600 EUREKA ROAD,ROSEVILLE,CA,95661,42.199943,-83.171615,37880.48065,67564.10221,114847.6246,0.56,0.33
50773,SAN LEANDRO HOSPITAL,13855 E 14TH STREET,SAN LEANDRO,CA,94578,37.7122362,-122.1433524,47668.73545,67564.10221,114847.6246,0.71,0.42
50775,TEMECULA VALLEY HOSPITAL,31700 TEMECULA PKWY,TEMECULA,CA,92592,33.4811362,-117.1060989,43683.70575,67564.10221,114847.6246,0.65,0.38
50776,COLLEGE MEDICAL CENTER,2776 PACIFIC AVENUE,LONG BEACH,CA,90806,33.806891,-118.1930627,40571.88241,67564.10221,114847.6246,0.6,0.35
60001,NORTH COLORADO MEDICAL CENTER,1801 16TH STREET,GREELEY,CO,80631,37.7659589,-122.4046643,46087.05728,67564.10221,76386.9134,0.68,0.6
60003,LONGMONT UNITED HOSPITAL,1950 MOUNTAIN VIEW AVENUE,LONGMONT,CO,80501,40.1823027,-105.1259282,43677.39721,67564.10221,76386.9134,0.65,0.57
60004,PLATTE VALLEY MEDICAL CENTER,1600 PRAIRIE CENTER PARKWAY,BRIGHTON,CO,80601,39.9645491,-104.7685472,34869.66683,67564.10221,76386.9134,0.52,0.46
60006,MONTROSE MEMORIAL HOSPITAL,800 S 3RD ST,MONTROSE,CO,81401,41.3060895,-105.594631,19780.48198,67564.10221,76386.9134,0.29,0.26
60008,SAN LUIS VALLEY HEALTH,106 BLANCA AVE,ALAMOSA,CO,81101,37.4721919,-105.8825469,24338.48314,67564.10221,76386.9134,0.36,0.32
60009,LUTHERAN MEDICAL CENTER,8300 W 38TH AVE,WHEAT RIDGE,CO,80033,39.7681121,-105.0898988,55366.80274,67564.10221,76386.9134,0.82,0.72
60010,POUDRE VALLEY HOSPITAL,1024 S LEMAY AVE,FORT COLLINS,CO,80524,40.5719183,-105.0566352,37199.454,67564.10221,76386.9134,0.55,0.49
60011,DENVER HEALTH MEDICAL CENTER,777 BANNOCK ST,DENVER,CO,80204,39.7282404,-104.9910801,53816.93236,67564.10221,76386.9134,0.8,0.7
60012,CENTURA HEALTH-ST MARY CORWIN MEDICAL CENTER,1008 MINNEQUA AVE,PUEBLO,CO,81004,38.2340346,-104.6234103,44554.61331,67564.10221,76386.9134,0.66,0.58
60013,MERCY REGIONAL MEDICAL CENTER,1010 THREE SPRINGS BLVD,DURANGO,CO,81301,37.2361245,-107.8257685,38822.64436,67564.10221,76386.9134,0.57,0.51
60014,PRESBYTERIAN ST LUKES MEDICAL CENTER,1719 E 19TH AVE,DENVER,CO,80218,39.7470476,-104.9665169,120435.1482,67564.10221,76386.9134,1.78,1.58
60015,CENTURA HEALTH-ST ANTHONY HOSPITAL,11600 WEST 2ND PLACE,LAKEWOOD,CO,80228,30.5513002,-97.4980966,81211.34552,67564.10221,76386.9134,1.2,1.06
60016,CENTURA HEALTH-ST THOMAS MORE HOSPITAL,1338 PHAY AVE,CANON CITY,CO,81212,38.4556633,-105.229732,27220.02107,67564.10221,76386.9134,0.4,0.36
60020,PARKVIEW MEDICAL CENTER INC,400 W 16TH STREET,PUEBLO,CO,81003,32.6988692,-114.624912,59027.37881,67564.10221,76386.9134,0.87,0.77
60022,UNIVERSITY COLO HEALTH MEMORIAL HOSPITAL CENTRAL,1400 E BOULDER ST,COLORADO SPRING,CO,80909,38.8393845,-104.7994262,58250.29058,67564.10221,76386.9134,0.86,0.76
60023,ST MARYS HOSPITAL AND MEDICAL CENTER,2635 N 7TH STREET,GRAND JUNCTION,CO,81502,39.0904811,-108.5627055,57226.79959,67564.10221,76386.9134,0.85,0.75
60024,UNIVERSITY OF COLORADO HOSPITAL ANSCHUTZ INPATIENT,12605 EAST 16TH AVENUE,AURORA,CO,80045,39.7426294,-104.8420288,101428.8026,67564.10221,76386.9134,1.5,1.33
60027,BOULDER COMMUNITY FOOTHILLS HOSPITAL,4747 ARAPAHOE AVENUE,BOULDER,CO,80304,40.0163244,-105.2362488,62277.19907,67564.10221,76386.9134,0.92,0.82
60028,SAINT JOSEPH HOSPITAL,1375 EAST 19TH AVE,DENVER,CO,80218,39.7461882,-104.9717268,86516.63803,67564.10221,76386.9134,1.28,1.13
60030,MCKEE MEDICAL CENTER,2000 BOISE AVE,LOVELAND,CO,80538,37.6024415,-121.0093582,33941.52873,67564.10221,76386.9134,0.5,0.44
60031,CENTURA HEALTH-PENROSE ST FRANCIS HEALTH SERVICES,2222 N NEVADA AVE,COLORADO SPRING,CO,80907,38.8655361,-104.8217503,59148.78891,67564.10221,76386.9134,0.88,0.77
60032,ROSE MEDICAL CENTER,4567 E 9TH AVENUE,DENVER,CO,80220,39.7322365,-104.9340998,71651.8034,67564.10221,76386.9134,1.06,0.94
60034,SWEDISH MEDICAL CENTER,501 E HAMPDEN AVENUE,ENGLEWOOD,CO,80113,39.6541703,-104.9807177,96293.59909,67564.10221,76386.9134,1.43,1.26
60036,ARKANSAS VALLEY REGIONAL MEDICAL CENTER,1100 CARSON AVENUE,LA JUNTA,CO,81050,36.1651481,-115.1345437,18486.15553,67564.10221,76386.9134,0.27,0.24
60044,COLORADO PLAINS MEDICAL CENTER,1000 LINCOLN ST,FORT MORGAN,CO,80701,37.3468719,-121.9532722,32905.63454,67564.10221,76386.9134,0.49,0.43
60049,YAMPA VALLEY MEDICAL CENTER,1024 CENTRAL PARK DR,STEAMBOAT SPRIN,CO,80487,26.130674,-80.2744477,66552.47197,67564.10221,76386.9134,0.99,0.87
60054,COMMUNITY HOSPITAL,2021 N 12TH ST,GRAND JUNCTION,CO,81501,42.6003731,-89.6341517,26928.15589,67564.10221,76386.9134,0.4,0.35
60064,CENTURA HEALTH-PORTER ADVENTIST HOSPITAL,2525 S DOWNING ST,DENVER,CO,80210,39.670102,-104.9748268,82833.96138,67564.10221,76386.9134,1.23,1.08
60065,NORTH SUBURBAN MEDICAL CENTER,9191 GRANT ST,THORNTON,CO,80229,39.8634626,-104.9854268,79392.06158,67564.10221,76386.9134,1.18,1.04
60071,DELTA COUNTY MEMORIAL HOSPITAL,1501 E 3RD STREET,DELTA,CO,81416,35.2129224,-80.8295554,19343.39431,67564.10221,76386.9134,0.29,0.25
60075,VALLEY VIEW HOSPITAL ASSOCIATION,1906 BLAKE AVE,GLENWOOD SPRING,CO,81601,39.5325996,-107.3218091,42766.9295,67564.10221,76386.9134,0.63,0.56
60076,STERLING REGIONAL MEDCENTER,615 FAIRHURST ST,STERLING,CO,80751,40.6126389,-103.2206649,18474.14088,67564.10221,76386.9134,0.27,0.24
60096,VAIL VALLEY MEDICAL CENTER,181 W MEADOW DRIVE,VAIL,CO,81657,38.4936928,-90.4937653,70254.02446,67564.10221,76386.9134,1.04,0.92
60100,"MEDICAL CENTER OF AURORA, THE",1501 S POTOMAC ST,AURORA,CO,80012,39.6900823,-104.8323774,77300.70792,67564.10221,76386.9134,1.14,1.01
60103,CENTURA HEALTH-AVISTA ADVENTIST HOSPITAL,100 HEALTH PARK DRIVE,LOUISVILLE,CO,80027,39.9519333,-105.1517462,58507.36191,67564.10221,76386.9134,0.87,0.77
60104,ST ANTHONY NORTH HEALTH CAMPUS,14300 ORCHARD PARKWAY,BROOMFIELD,CO,80023,39.9564373,-104.9911905,50673.58183,67564.10221,76386.9134,0.75,0.66
60112,SKY RIDGE MEDICAL CENTER,10101 RIDGE GATE PARKWAY,LONE TREE,CO,80124,30.2571622,-81.5398085,92083.86073,67564.10221,76386.9134,1.36,1.21
60113,CENTURA HEALTH-LITTLETON ADVENTIST HOSPITAL,7700 S BROADWAY,LITTLETON,CO,80122,33.9696975,-118.2780622,64093.14371,67564.10221,76386.9134,0.95,0.84
60114,PARKER ADVENTIST HOSPITAL,9395 CROWN CREST BLVD,PARKER,CO,80138,39.5486133,-104.7710383,74113.05473,67564.10221,76386.9134,1.1,0.97
60116,GOOD SAMARITAN MEDICAL CENTER,200 EXEMPLA CIRCLE,LAFAYETTE,CO,80026,39.9705009,-105.0863669,59668.53588,67564.10221,76386.9134,0.88,0.78
60117,"ANIMAS SURGICAL HOSPITAL, LLC",575 RIVERGATE LANE,DURANGO,CO,81301,34.0992917,-96.3852416,53187.63103,67564.10221,76386.9134,0.79,0.7
60118,ST ANTHONY SUMMIT MEDICAL CENTER,340 PEAK ONE DRIVE,FRISCO,CO,80443,39.5694015,-106.0777299,64034.50941,67564.10221,76386.9134,0.95,0.84
60119,MEDICAL CENTER OF THE ROCKIES,2500 ROCKY MOUNTAIN AVENUE,LOVELAND,CO,80538,40.4159268,-104.9970122,63835.35686,67564.10221,76386.9134,0.94,0.84
60124,ORTHOCOLORADO HOSPITAL AT ST ANTHONY MED CAMPUS,11650 W 2ND PLACE,LAKEWOOD,CO,80228,39.7170565,-105.1292035,86875.45437,67564.10221,76386.9134,1.29,1.14
60125,CASTLE ROCK ADVENTIST HOSPITAL,2350 MEADOWS BLVD,CASTLE ROCK,CO,80109,39.405322,-104.8871068,62371.10443,67564.10221,76386.9134,0.92,0.82
70002,ST FRANCIS HOSPITAL & MEDICAL CENTER,114 WOODLAND STREET,HARTFORD,CT,6105,41.7749634,-72.6984118,53514.08879,67564.10221,58895.48776,0.79,0.91
70003,DAY KIMBALL HOSPITAL,320 POMFRET STREET,PUTNAM,CT,6260,41.909204,-71.914523,14655.1204,67564.10221,58895.48776,0.22,0.25
70004,SHARON HOSPITAL,"50 HOSPITAL HILL ROAD, PO BOX 789",SHARON,CT,6069,41.8810518,-73.4814997,20922.28663,67564.10221,58895.48776,0.31,0.36
70005,WATERBURY HOSPITAL,64 ROBBINS ST,WATERBURY,CT,6721,41.5594888,-73.059081,51294.09465,67564.10221,58895.48776,0.76,0.87
70006,STAMFORD HOSPITAL,30 SHELBURNE ROAD,STAMFORD,CT,6904,44.4645392,-73.2076918,54298.06543,67564.10221,58895.48776,0.8,0.92
70007,LAWRENCE & MEMORIAL HOSPITAL,365 MONTAUK AVE,NEW LONDON,CT,6320,41.3363078,-72.1056047,27357.47346,67564.10221,58895.48776,0.4,0.46
70008,JOHNSON MEMORIAL HOSPITAL,201 CHESTNUT HILL RD,STAFFORD SPRING,CT,6076,41.9795964,-72.3911022,23137.24228,67564.10221,58895.48776,0.34,0.39
70010,BRIDGEPORT HOSPITAL,267 GRANT STREET,BRIDGEPORT,CT,6610,39.7205776,-104.9838256,55450.78536,67564.10221,58895.48776,0.82,0.94
70011,CHARLOTTE HUNGERFORD HOSPITAL,540 LITCHFIELD ST,TORRINGTON,CT,6790,41.7915265,-73.1338228,17377.25223,67564.10221,58895.48776,0.26,0.3
70012,ROCKVILLE GENERAL HOSPITAL,31 UNION ST,ROCKVILLE,CT,6066,41.8664467,-72.4509128,25561.24641,67564.10221,58895.48776,0.38,0.43
70015,NEW MILFORD HOSPITAL,21 ELM ST,NEW MILFORD,CT,6776,42.9739265,-71.4628428,25222.95757,67564.10221,58895.48776,0.37,0.43
70016,SAINT MARYS HOSPITAL,56 FRANKLIN ST,WATERBURY,CT,6706,42.1249764,-72.7517803,30690.32783,67564.10221,58895.48776,0.45,0.52
70017,MIDSTATE MEDICAL CENTER,435 LEWIS AVE,MERIDEN,CT,6450,45.781326,-108.527143,28640.3611,67564.10221,58895.48776,0.42,0.49
70018,GREENWICH HOSPITAL ASSOCIATION,5 PERRYRIDGE RD,GREENWICH,CT,6830,41.034308,-73.630196,46454.85882,67564.10221,58895.48776,0.69,0.79
70019,"MILFORD HOSPITAL, INC",300 SEASIDE AVENUE,MILFORD,CT,6460,21.2787696,-157.8285346,27121.01855,67564.10221,58895.48776,0.4,0.46
70020,MIDDLESEX HOSPITAL,28 CRESCENT ST,MIDDLETOWN,CT,6457,40.7630684,-73.9289258,45250.53068,67564.10221,58895.48776,0.67,0.77
70021,WINDHAM COMM MEM HOSP & HATCH HOSP,112 MANSFIELD AVE,WILLIMANTIC,CT,6226,40.874214,-82.651004,18389.73429,67564.10221,58895.48776,0.27,0.31
70022,YALE-NEW HAVEN HOSPITAL,20 YORK ST,NEW HAVEN,CT,6504,39.801298,-76.981446,82845.47298,67564.10221,58895.48776,1.23,1.41
70024,WILLIAM W BACKUS HOSPITAL,326 WASHINGTON ST,NORWICH,CT,6360,42.3488202,-71.1520021,24885.76996,67564.10221,58895.48776,0.37,0.42
70025,HARTFORD HOSPITAL,80 SEYMOUR STREET,HARTFORD,CT,6102,41.7541227,-72.6791793,51089.52294,67564.10221,58895.48776,0.76,0.87
70027,MANCHESTER MEMORIAL HOSPITAL,71 HAYNES ST,MANCHESTER,CT,6040,41.7818795,-72.5255571,30243.5797,67564.10221,58895.48776,0.45,0.51
70028,ST VINCENT'S MEDICAL CENTER,2800 MAIN ST,BRIDGEPORT,CT,6606,42.9429242,-78.835644,52735.07886,67564.10221,58895.48776,0.78,0.9
70029,BRISTOL HOSPITAL,BREWSTER RD,BRISTOL,CT,6010,41.4197908,-73.6746372,25919.313,67564.10221,58895.48776,0.38,0.44
70031,GRIFFIN HOSPITAL,130 DIVISION ST,DERBY,CT,6418,41.5947414,-82.7105393,29381.25177,67564.10221,58895.48776,0.43,0.5
70033,DANBURY HOSPITAL,24 HOSPITAL AVE,DANBURY,CT,6810,41.4050857,-73.446289,39755.26126,67564.10221,58895.48776,0.59,0.68
70034,NORWALK HOSPITAL ASSOCIATION,24 STEVENS STREET,NORWALK,CT,6856,41.3019098,-72.9430297,41778.67189,67564.10221,58895.48776,0.62,0.71
70035,"HOSPITAL OF CENTRAL CONNECTICUT, THE",100 GRAND STREET,NEW BRITAIN,CT,6050,40.7215003,-74.0015753,29793.72995,67564.10221,58895.48776,0.44,0.51
70036,JOHN DEMPSEY HOSPITAL,263 FARMINGTON AVE,FARMINGTON,CT,6032,41.7304054,-72.7906181,34316.28851,67564.10221,58895.48776,0.51,0.58
70039,MASONIC HOME AND HOSPITAL,22 MASONIC AVE,WALLINGFORD,CT,6492,41.4628121,-72.8364962,6772.852926,67564.10221,58895.48776,0.1,0.11
70040,HEBREW HOME AND HOSPITAL INC,1 ABRAHMS BOULEVARD,WEST HARTFORD,CT,6117,41.8016603,-72.7257515,5111.416667,67564.10221,58895.48776,0.08,0.09
80001,"CHRISTIANA CARE HEALTH SERVICES, INC.",4755 OGLETOWN-STANTON ROAD,NEWARK,DE,19718,39.6878859,-75.668995,37522.39677,67564.10221,39453.04315,0.56,0.95
80003,ST FRANCIS HOSPITAL,7TH AND CLAYTON STS,WILMINGTON,DE,19805,33.7792782,-117.2485232,30987.6053,67564.10221,39453.04315,0.46,0.79
80004,BAYHEALTH - KENT GENERAL HOSPITAL,640 S STATE STREET,DOVER,DE,19901,39.5375845,-111.4556418,40499.43776,67564.10221,39453.04315,0.6,1.03
80006,NANTICOKE MEMORIAL HOSPITAL,801 MIDDLEFORD RD,SEAFORD,DE,19973,38.6422067,-75.6046615,21320.40381,67564.10221,39453.04315,0.32,0.54
80007,BEEBE MEDICAL CENTER,424 SAVANNAH RD,LEWES,DE,19958,38.7720274,-75.1438834,42295.29452,67564.10221,39453.04315,0.63,1.07
80009,BAYHEALTH - MILFORD MEMORIAL HOSPITAL,21 WEST CLARKE AVENUE,MILFORD,DE,19963,38.9071836,-75.4326392,30687.95908,67564.10221,39453.04315,0.45,0.78
90001,GEORGE WASHINGTON UNIV HOSPITAL,900 23RD ST NW,WASHINGTON,DC,20037,38.9013368,-77.0507854,79946.48395,67564.10221,71140.22492,1.18,1.12
90003,HOWARD UNIVERSITY HOSPITAL,2041 GEORGIA AVE NW,WASHINGTON,DC,20060,38.9175229,-77.0199887,42635.33665,67564.10221,71140.22492,0.63,0.6
90004,MEDSTAR GEORGETOWN UNIVERSITY HOSPITAL,3800 RESERVOIR RD,WASHINGTON,DC,20007,36.4879127,-82.6117624,91047.73064,67564.10221,71140.22492,1.35,1.28
90005,SIBLEY MEMORIAL HOSPITAL,5255 LOUGHBORO RD NW,WASHINGTON,DC,20016,38.9365582,-77.1092589,27022.83687,67564.10221,71140.22492,0.4,0.38
90006,PROVIDENCE HOSPITAL,1150 VARNUM ST NE,WASHINGTON,DC,20017,38.9437638,-76.9915731,31473.3814,67564.10221,71140.22492,0.47,0.44
90008,UNITED MEDICAL CENTER,1310 SOUTHERN AVENUE  SE,WASHINGTON,DC,20032,38.8359393,-76.9849936,30845.77983,67564.10221,71140.22492,0.46,0.43
90011,MEDSTAR WASHINGTON HOSPITAL CENTER,110 IRVING ST NW,WASHINGTON,DC,20010,38.9295004,-77.0144985,74671.50793,67564.10221,71140.22492,1.11,1.05
100001,UF HEALTH JACKSONVILLE,655 W 8TH ST,JACKSONVILLE,FL,32209,30.3488168,-81.6645858,64800.11381,67564.10221,79129.90156,0.96,0.82
100002,BETHESDA HOSPITAL EAST,2815 S SEACREST BLVD,BOYNTON BEACH,FL,33435,26.5047937,-80.0704477,59171.01608,67564.10221,79129.90156,0.88,0.75
100006,ORLANDO HEALTH,1414 KUHL AVE,ORLANDO,FL,32806,28.5257624,-81.3773571,83043.71677,67564.10221,79129.90156,1.23,1.05
100007,FLORIDA HOSPITAL,601 E ROLLINS ST,ORLANDO,FL,32803,28.5744699,-81.3695415,87769.53544,67564.10221,79129.90156,1.3,1.11
100008,BAPTIST HOSPITAL OF MIAMI INC,8900 N KENDALL DR,MIAMI,FL,33176,25.6830929,-80.3403287,96815.29031,67564.10221,79129.90156,1.43,1.22
100009,UNIVERSITY OF MIAMI HOSPITAL,1400 NW 12TH AVE,MIAMI,FL,33136,25.7886212,-80.2158643,110820.0532,67564.10221,79129.90156,1.64,1.4
100012,LEE MEMORIAL HOSPITAL,2776 CLEVELAND AVE,FORT MYERS,FL,33901,26.6282125,-81.8743415,54478.75243,67564.10221,79129.90156,0.81,0.69
100014,BERT FISH MEDICAL CENTER,401 PALMETTO ST,NEW SMYRNA BEAC,FL,32170,29.0205633,-80.9219167,26052.54175,67564.10221,79129.90156,0.39,0.33
100017,HALIFAX HEALTH MEDICAL CENTER,303 N CLYDE MORRIS BLVD,DAYTONA BEACH,FL,32114,29.201051,-81.0541609,39761.98732,67564.10221,79129.90156,0.59,0.5
100018,NAPLES COMMUNITY HOSPITAL,350 7TH ST N,NAPLES,FL,34102,27.7764743,-82.6428197,41928.88482,67564.10221,79129.90156,0.62,0.53
100019,HOLMES REGIONAL MEDICAL CENTER,1350 S HICKORY ST,MELBOURNE,FL,32901,43.743659,-88.467787,57628.88519,67564.10221,79129.90156,0.85,0.73
100022,JACKSON MEMORIAL HOSPITAL,1611 NW 12TH AVE,MIAMI,FL,33136,25.7917988,-80.2126381,70644.72267,67564.10221,79129.90156,1.05,0.89
100023,CITRUS MEMORIAL HOSPITAL,502 W HIGHLAND BLVD,INVERNESS,FL,34452,28.8334017,-82.3359666,43310.89765,67564.10221,79129.90156,0.64,0.55
100025,SACRED HEART HOSPITAL,5151 N 9TH AVE,PENSACOLA,FL,32504,30.4764994,-87.2121942,40618.32234,67564.10221,79129.90156,0.6,0.51
100026,BAY MEDICAL CENTER SACRED HEART HEALTH SYSTEM,615 N BONITA AVE,PANAMA CITY,FL,32401,30.1596644,-85.6486243,45977.44072,67564.10221,79129.90156,0.68,0.58
100028,PARRISH MEDICAL CENTER,951 N WASHINGTON AVE,TITUSVILLE,FL,32796,28.6308071,-80.8240873,36218.81131,67564.10221,79129.90156,0.54,0.46
100029,NORTH SHORE MEDICAL CENTER,1100 NW 95TH ST,MIAMI,FL,33150,25.8601632,-80.2142174,76708.83048,67564.10221,79129.90156,1.14,0.97
100030,HEALTH CENTRAL,10000 W COLONIAL DR,OCOEE,FL,34761,28.549928,-81.5278629,47049.98988,67564.10221,79129.90156,0.7,0.59
100032,BAYFRONT HEALTH - ST PETERSBURG,701 6TH ST S,SAINT PETERSBUR,FL,33701,33.939801,-86.4596912,87578.92967,67564.10221,79129.90156,1.3,1.11
100034,MOUNT SINAI MEDICAL CENTER,4300 ALTON RD,MIAMI BEACH,FL,33140,25.8131597,-80.1401152,78822.36042,67564.10221,79129.90156,1.17,1
100035,MANATEE MEMORIAL HOSPITAL,206 2ND ST E,BRADENTON,FL,34208,42.7184003,-102.4620209,72700.91619,67564.10221,79129.90156,1.08,0.92
100038,MEMORIAL REGIONAL HOSPITAL,3501 JOHNSON ST,HOLLYWOOD,FL,33021,26.0189172,-80.1797209,86708.5381,67564.10221,79129.90156,1.28,1.1
100039,BROWARD HEALTH MEDICAL CENTER,1600 S ANDREWS AVE,FORT LAUDERDALE,FL,33316,26.1020436,-80.1407874,62685.43703,67564.10221,79129.90156,0.93,0.79
100040,ST VINCENT'S MEDICAL CENTER,1 SHIRCLIFF WAY,JACKSONVILLE,FL,32204,30.307202,-81.689871,54482.92605,67564.10221,79129.90156,0.81,0.69
100043,MEASE DUNEDIN HOSPITAL,601 MAIN ST,DUNEDIN,FL,34698,42.0963645,-90.1576608,31917.24838,67564.10221,79129.90156,0.47,0.4
100044,MARTIN MEDICAL CENTER,200 SE HOSPITAL AVE,STUART,FL,34995,41.1148705,-78.7765892,65914.42677,67564.10221,79129.90156,0.98,0.83
100045,FLORIDA HOSPITAL DELAND,701 W PLYMOUTH AVE,DELAND,FL,32720,29.0438523,-81.3174744,31538.3189,67564.10221,79129.90156,0.47,0.4
100046,FLORIDA HOSPITAL ZEPHYRHILLS,7050 GALL BLVD,ZEPHYRHILLS,FL,33541,28.26093,-82.1880149,58921.85873,67564.10221,79129.90156,0.87,0.74
100047,BAYFRONT HEALTH PUNTA GORDA,809 E MARION AVE,PUNTA GORDA,FL,33950,26.9409922,-82.040058,60279.78655,67564.10221,79129.90156,0.89,0.76
100048,JAY HOSPITAL,14114 ALABAMA ST,JAY,FL,32565,30.950148,-87.150953,18261.27824,67564.10221,79129.90156,0.27,0.23
100049,HIGHLANDS REGIONAL MEDICAL CENTER,3600 S HIGHLANDS AVE,SEBRING,FL,33870,27.4656878,-81.432977,50696.4521,67564.10221,79129.90156,0.75,0.64
100050,PALM SPRINGS GENERAL HOSPITAL,1475 W 49TH ST,HIALEAH,FL,33012,25.868555,-80.312223,35460.32857,67564.10221,79129.90156,0.52,0.45
100051,SOUTH LAKE HOSPITAL,1900 DON WICKHAM DR,CLERMONT,FL,34711,28.552044,-81.720865,49532.88735,67564.10221,79129.90156,0.73,0.63
100052,WINTER HAVEN HOSPITAL,200 AVE F NE,WINTER HAVEN,FL,33881,34.4260233,-100.2034105,59692.7322,67564.10221,79129.90156,0.88,0.75
100053,HIALEAH HOSPITAL,651 E 25TH ST,HIALEAH,FL,33013,25.8454917,-80.2689241,63019.9398,67564.10221,79129.90156,0.93,0.8
100054,TWIN CITIES HOSPITAL,2190 HWY 85 N,NICEVILLE,FL,32578,30.5335439,-86.4955846,69428.82282,67564.10221,79129.90156,1.03,0.88
100055,FLORIDA HOSPITAL NORTH PINELLAS,1395 S PINELLAS AVE,TARPON SPRINGS,FL,34689,28.132767,-82.7575957,37430.9546,67564.10221,79129.90156,0.55,0.47
100057,FLORIDA HOSPITAL WATERMAN,1000 WATERMAN WAY,TAVARES,FL,32778,28.823794,-81.714703,39751.74531,67564.10221,79129.90156,0.59,0.5
100062,MUNROE REGIONAL MEDICAL CENTER,1500 SW 1ST AVE,OCALA,FL,34474,45.2556634,-122.7072451,55402.6742,67564.10221,79129.90156,0.82,0.7
100063,MORTON PLANT NORTH BAY HOSPITAL,6600 MADISON ST,NEW PORT RICHEY,FL,34652,28.254315,-82.714474,42548.93541,67564.10221,79129.90156,0.63,0.54
100067,ST ANTHONYS HOSPITAL,1200 SEVENTH AVE N,SAINT PETERSBUR,FL,33705,27.7786029,-82.650757,50890.06109,67564.10221,79129.90156,0.75,0.64
100068,FLORIDA HOSPITAL MEMORIAL MEDICAL CENTER,301 MEMORIAL MEDICAL PARKWAY,DAYTONA BEACH,FL,32117,29.243217,-81.1075486,45484.97827,67564.10221,79129.90156,0.67,0.57
100069,FLORIDA HOSPITAL CARROLLWOOD,7171 N DALE MABRY HWY,TAMPA,FL,33614,28.0136077,-82.5038008,108983.0378,67564.10221,79129.90156,1.61,1.38
100070,VENICE REGIONAL MEDICAL CENTER - BAYFRONT HEALTH,540 THE RIALTO,VENICE,FL,34285,27.0905363,-82.4449121,72635.06224,67564.10221,79129.90156,1.08,0.92
100071,BAYFRONT HEALTH BROOKSVILLE,17240 CORTEZ BLVD,BROOKSVILLE,FL,34601,28.5385,-82.4430386,86717.25774,67564.10221,79129.90156,1.28,1.1
100072,FLORIDA HOSPITAL FISH MEMORIAL,1055 SAXON BLVD,ORANGE CITY,FL,32763,28.914028,-81.284804,36159.92367,67564.10221,79129.90156,0.54,0.46
100073,HOLY CROSS HOSPITAL INC,4725 N FEDERAL HWY,FORT LAUDERDALE,FL,33308,26.1871437,-80.1199314,56165.16114,67564.10221,79129.90156,0.83,0.71
100075,ST JOSEPHS HOSPITAL,3001 W MARTIN LUTHER KING JR BLVD,TAMPA,FL,33677,34.0109061,-118.3270387,60730.20434,67564.10221,79129.90156,0.9,0.77
100076,METROPOLITAN HOSPITAL OF MIAMI,5959 NW 7TH ST,MIAMI,FL,33126,25.7784788,-80.2936018,31019.42859,67564.10221,79129.90156,0.46,0.39
100077,BAYFRONT HEALTH PORT CHARLOTTE,2500 HARBOR BLVD,PORT CHARLOTTE,FL,33952,26.9890508,-82.0955944,86582.78253,67564.10221,79129.90156,1.28,1.09
100080,JFK MEDICAL CENTER,5301 S CONGRESS AVE,ATLANTIS,FL,33462,26.5986046,-80.0915388,92823.01225,67564.10221,79129.90156,1.37,1.17
100081,HEALTHMARK REGIONAL MEDICAL CENTER,4413 US HWY 331 S,DEFUNIAK SPRING,FL,32435,30.6599519,-86.117635,14070.5541,67564.10221,79129.90156,0.21,0.18
100084,LEESBURG REGIONAL MEDICAL CENTER,600 E DIXIE AVE,LEESBURG,FL,34748,37.6865152,-85.8517966,41752.86165,67564.10221,79129.90156,0.62,0.53
100086,BROWARD HEALTH NORTH,201 E SAMPLE RD,POMPANO BEACH,FL,33064,26.2751682,-80.120158,44566.95968,67564.10221,79129.90156,0.66,0.56
100087,SARASOTA MEMORIAL HOSPITAL,1700 S TAMIAMI TRL,SARASOTA,FL,34239,27.3182559,-82.5311985,56249.51607,67564.10221,79129.90156,0.83,0.71
100088,BAPTIST MEDICAL CENTER,800 PRUDENTIAL DR,JACKSONVILLE,FL,32207,30.3155312,-81.6635699,61094.5312,67564.10221,79129.90156,0.9,0.77
100090,FLAGLER HOSPITAL,400 HEALTH PARK BLVD,SAINT AUGUSTINE,FL,32086,29.8632208,-81.3173601,52206.7375,67564.10221,79129.90156,0.77,0.66
100092,WUESTHOFF MEDICAL CENTER  ROCKLEDGE,110 LONGWOOD AVE,ROCKLEDGE,FL,32955,28.335224,-80.723195,60598.69997,67564.10221,79129.90156,0.9,0.77
100093,BAPTIST HOSPITAL,1000 W MORENO ST,PENSACOLA,FL,32501,30.4294318,-87.2312805,52620.24648,67564.10221,79129.90156,0.78,0.66
100099,LAKE WALES MEDICAL CENTER,410 S 11TH ST,LAKE WALES,FL,33853,41.8240576,-86.2473376,53174.86988,67564.10221,79129.90156,0.79,0.67
100102,SHANDS LAKE SHORE REGIONAL MEDICAL CENTER,368 NE FRANKLIN ST,LAKE CITY,FL,32055,30.1930709,-82.6325991,35051.75782,67564.10221,79129.90156,0.52,0.44
100105,INDIAN RIVER MEDICAL CENTER,1000 36TH ST,VERO BEACH,FL,32960,26.7449274,-80.065669,26113.92372,67564.10221,79129.90156,0.39,0.33
100106,DOCTOR'S MEMORIAL HOSPITAL INC,333 N BYRON BUTLER PKWY,PERRY,FL,32348,30.1201475,-83.5930863,12615.65325,67564.10221,79129.90156,0.19,0.16
100107,LEHIGH REGIONAL MEDICAL CENTER,1500 LEE BLVD,LEHIGH ACRES,FL,33936,46.2751301,-119.2918011,44701.08014,67564.10221,79129.90156,0.66,0.56
100109,FLORIDA HOSPITAL HEARTLAND MEDICAL CENTER,4200 SUN N LAKE BLVD,SEBRING,FL,33871,27.5391589,-81.5099593,45587.52226,67564.10221,79129.90156,0.67,0.58
100110,OSCEOLA REGIONAL MEDICAL CENTER,700 WEST OAK STREET,KISSIMMEE,FL,34741,33.2159482,-97.1393842,85120.69619,67564.10221,79129.90156,1.26,1.08
100113,UF HEALTH SHANDS HOSPITAL,1600 SW ARCHER RD,GAINESVILLE,FL,32610,29.6401639,-82.3439055,61823.48642,67564.10221,79129.90156,0.92,0.78
100117,BAPTIST MEDICAL CENTER  BEACHES,1350 13TH AVE S,JACKSONVILLE BE,FL,32250,46.8613942,-96.8010593,39072.66561,67564.10221,79129.90156,0.58,0.49
100118,FLORIDA HOSPITAL FLAGLER,60 MEMORIAL MEDICAL PKWY,PALM COAST,FL,32164,29.4791799,-81.1894316,28794.53743,67564.10221,79129.90156,0.43,0.36
100121,BARTOW REGIONAL MEDICAL CENTER,2200 OSPREY BLVD,BARTOW,FL,33831,27.9179801,-81.8440247,42538.11403,67564.10221,79129.90156,0.63,0.54
100122,NORTH OKALOOSA MEDICAL CENTER,151 REDSTONE AVE SE,CRESTVIEW,FL,32539,30.7356276,-86.5621695,88628.2487,67564.10221,79129.90156,1.31,1.12
100124,SANTA ROSA MEDICAL CENTER,6002 BERRYHILL RD,MILTON,FL,32570,30.6344146,-87.0669536,37770.03223,67564.10221,79129.90156,0.56,0.48
100125,HOMESTEAD HOSPITAL,975 BAPTIST WAY,HOMESTEAD,FL,33033,25.4792269,-80.4304752,49360.4644,67564.10221,79129.90156,0.73,0.62
100126,PALMS OF PASADENA HOSPITAL,1501 PASADENA AVE S,SAINT PETERSBUR,FL,33707,27.7527998,-82.739575,85510.36372,67564.10221,79129.90156,1.27,1.08
100127,MORTON PLANT HOSPITAL,300 PINELLAS ST,CLEARWATER,FL,33756,27.9530818,-82.8038243,60508.33605,67564.10221,79129.90156,0.9,0.76
100128,TAMPA GENERAL HOSPITAL,1 TAMPA GENERAL CIR,TAMPA,FL,33606,27.9381581,-82.4590989,119893.1699,67564.10221,79129.90156,1.77,1.52
100130,LAKESIDE MEDICAL CENTER,39200 HOOKER HWY,BELLE GLADE,FL,33430,26.7241903,-80.671271,30867.96523,67564.10221,79129.90156,0.46,0.39
100131,AVENTURA HOSPITAL AND MEDICAL CENTER,20900 BISCAYNE BLVD,AVENTURA,FL,33180,25.96994,-80.14533,81104.47662,67564.10221,79129.90156,1.2,1.02
100132,SOUTH FLORIDA BAPTIST HOSPITAL,301 N ALEXANDER ST,PLANT CITY,FL,33563,28.0156281,-82.1387267,42201.7065,67564.10221,79129.90156,0.62,0.53
100134,ED FRASER MEMORIAL HOSPITAL,159 N 3RD ST,MACCLENNY,FL,32063,38.6806917,-121.7703253,21754.42857,67564.10221,79129.90156,0.32,0.27
100135,TALLAHASSEE MEMORIAL HOSPITAL,1300 MICCOSUKEE RD,TALLAHASSEE,FL,32308,30.4566811,-84.2616517,51073.75365,67564.10221,79129.90156,0.76,0.65
100137,HEART OF FLORIDA REGIONAL MEDICAL CENTER,40100 US HWY 27 N,DAVENPORT,FL,33837,35.7018265,-92.7858823,80089.18418,67564.10221,79129.90156,1.19,1.01
100140,BAPTIST MEDICAL CENTER - NASSAU,1250 S 18TH ST,FERNANDINA BEAC,FL,32034,40.7226332,-92.8679074,25714.576,67564.10221,79129.90156,0.38,0.32
100142,JACKSON HOSPITAL,4250 HOSPITAL DR,MARIANNA,FL,32446,30.786751,-85.241891,15425.79255,67564.10221,79129.90156,0.23,0.19
100150,LOWER KEYS MEDICAL CENTER,5900 COLLEGE ROAD,KEY WEST,FL,33040,24.580906,-81.7425908,46968.01428,67564.10221,79129.90156,0.7,0.59
100151,MAYO CLINIC,4500 SAN PABLO RD,JACKSONVILLE,FL,32224,32.2513658,-106.7655424,58852.9603,67564.10221,79129.90156,0.87,0.74
100154,SOUTH MIAMI HOSPITAL,6200 SW 73RD ST,SOUTH MIAMI,FL,33143,25.7035412,-80.293897,72937.05164,67564.10221,79129.90156,1.08,0.92
100156,LAKE CITY MEDICAL CENTER,340 NW COMMERCE DR,LAKE CITY,FL,32055,38.9252072,-94.3846388,37461.35063,67564.10221,79129.90156,0.55,0.47
100157,LAKELAND REGIONAL MEDICAL CENTER,1324 LAKELAND HILLS BLVD,LAKELAND,FL,33805,28.0606898,-81.9546908,56226.12117,67564.10221,79129.90156,0.83,0.71
100161,CENTRAL FLORIDA REGIONAL HOSPITAL,1401 W SEMINOLE BLVD,SANFORD,FL,32771,28.8146209,-81.2836352,57333.36401,67564.10221,79129.90156,0.85,0.72
100166,DOCTORS HOSPITAL OF SARASOTA,5731 BEE RIDGE RD,SARASOTA,FL,34233,27.3019374,-82.4530625,66987.36623,67564.10221,79129.90156,0.99,0.85
100167,PLANTATION GENERAL HOSPITAL,401 NW 42ND AVE,PLANTATION,FL,33317,26.126466,-80.205193,79933.9989,67564.10221,79129.90156,1.18,1.01
100168,BOCA RATON REGIONAL HOSPITAL,800 MEADOWS RD,BOCA RATON,FL,33486,31.4119964,-83.7758389,51182.59072,67564.10221,79129.90156,0.76,0.65
100173,FLORIDA HOSPITAL TAMPA,3100 E FLETCHER AVE,TAMPA,FL,33613,28.0714161,-82.423589,76839.18886,67564.10221,79129.90156,1.14,0.97
100175,DESOTO MEMORIAL HOSPITAL,900 N ROBERT AVE,ARCADIA,FL,34265,34.6232358,-78.9824947,22181.83069,67564.10221,79129.90156,0.33,0.28
100176,PALM BEACH GARDENS MEDICAL CENTER,3360 BURNS RD,PALM BEACH GARD,FL,33410,26.8294766,-80.0866442,70219.55211,67564.10221,79129.90156,1.04,0.89
100177,CAPE CANAVERAL HOSPITAL,701 W COCOA BEACH CAUSEWAY,COCOA BEACH,FL,32932,28.3600539,-80.6230916,33617.99832,67564.10221,79129.90156,0.5,0.42
100179,MEMORIAL HOSPITAL JACKSONVILLE,3625 UNIVERSITY BLVD S,JACKSONVILLE,FL,32216,30.2878473,-81.6011644,89293.67515,67564.10221,79129.90156,1.32,1.13
100180,ST PETERSBURG GENERAL HOSPITAL,6500 38TH AVE N,SAINT PETERSBUR,FL,33710,27.8053915,-82.7267571,97585.41486,67564.10221,79129.90156,1.44,1.23
100181,LARKIN COMMUNITY HOSPITAL,7031 SW 62ND AVE,SOUTH MIAMI,FL,33143,25.7055657,-80.2930992,53132.96643,67564.10221,79129.90156,0.79,0.67
100183,CORAL GABLES HOSPITAL,3100 DOUGLAS RD,CORAL GABLES,FL,33134,25.7435082,-80.2547701,69204.14426,67564.10221,79129.90156,1.02,0.87
100187,PALMETTO GENERAL HOSPITAL,2001 W 68TH ST,HIALEAH,FL,33016,25.8847648,-80.3285197,77160.34864,67564.10221,79129.90156,1.14,0.98
100189,NORTHWEST MEDICAL CENTER,2801 N STATE RD 7,MARGATE,FL,33063,26.2630939,-80.2030465,83601.67709,67564.10221,79129.90156,1.24,1.06
100191,MEDICAL CENTER OF TRINITY,"9332 SR 54, STE 401",TRINITY,FL,34655,28.2043925,-82.6597093,78630.63249,67564.10221,79129.90156,1.16,0.99
100200,BROWARD HEALTH IMPERIAL POINT,6401 N FEDERAL HWY,FORT LAUDERDALE,FL,33308,26.406743,-80.076711,22275.42125,67564.10221,79129.90156,0.33,0.28
100204,NORTH FLORIDA REGIONAL MEDICAL CENTER,6500 NEWBERRY RD,GAINESVILLE,FL,32605,34.4197631,-81.1757288,84838.33813,67564.10221,79129.90156,1.26,1.07
100206,MEMORIAL HOSPITAL OF TAMPA,2901 W SWANN AVE,TAMPA,FL,33609,27.9380455,-82.4898248,66304.27577,67564.10221,79129.90156,0.98,0.84
100209,KENDALL REGIONAL MEDICAL CENTER,11750 BIRD RD,MIAMI,FL,33175,25.7319314,-80.385768,85466.47284,67564.10221,79129.90156,1.26,1.08
100211,BAYFRONT HEALTH DADE CITY,13100 FT KING RD,DADE CITY,FL,33525,28.348055,-82.199629,57131.59373,67564.10221,79129.90156,0.85,0.72
100212,OCALA REGIONAL MEDICAL CENTER,1431 SW 1ST AVE,OCALA,FL,34478,45.2555299,-122.7072339,70647.93121,67564.10221,79129.90156,1.05,0.89
100213,BLAKE MEDICAL CENTER,2020 59TH ST W,BRADENTON,FL,34209,27.4822425,-82.6233649,65759.20008,67564.10221,79129.90156,0.97,0.83
100217,SEBASTIAN RIVER MEDICAL CENTER,13695 US HWY 1,SEBASTIAN,FL,32978,27.8435431,-80.4889642,71654.83271,67564.10221,79129.90156,1.06,0.91
100220,GULF COAST MEDICAL CENTER LEE MEM HEALTH SYSTEM,13681 DOCTOR'S WAY,FORT MYERS,FL,33912,26.5441756,-81.8504152,51030.92203,67564.10221,79129.90156,0.76,0.64
100223,FORT WALTON BEACH MEDICAL CENTER,1000 MAR-WALT DR,FORT WALTON BEA,FL,32547,30.454478,-86.633621,98840.54249,67564.10221,79129.90156,1.46,1.25
100224,UNIVERSITY HOSPITAL AND MEDICAL CENTER,7201 N UNIVERSITY DR,TAMARAC,FL,33321,26.21211,-80.2544482,58961.4567,67564.10221,79129.90156,0.87,0.75
100226,ORANGE PARK MEDICAL CENTER,2001 KINGSLEY AVE,ORANGE PARK,FL,32073,30.1659644,-81.7376226,102133.1749,67564.10221,79129.90156,1.51,1.29
100228,WESTSIDE REGIONAL MEDICAL CENTER,8201 W BROWARD BLVD,PLANTATION,FL,33324,26.123543,-80.259512,70678.59547,67564.10221,79129.90156,1.05,0.89
100230,MEMORIAL HOSPITAL PEMBROKE,7800 SHERIDAN ST,PEMBROKE PINES,FL,33024,26.0296726,-80.2456615,53304.04076,67564.10221,79129.90156,0.79,0.67
100231,WEST FLORIDA HOSPITAL,8383 N DAVIS HWY,PENSACOLA,FL,32514,30.5153695,-87.2187566,67079.64208,67564.10221,79129.90156,0.99,0.85
100232,PUTNAM COMMUNITY MEDICAL CENTER,611 ZEAGLER DR,PALATKA,FL,32177,29.644807,-81.694311,29856.44958,67564.10221,79129.90156,0.44,0.38
100234,WEST PALM HOSPITAL,2201 45TH ST,WEST PALM BEACH,FL,33407,26.7619368,-80.0876123,56637.84281,67564.10221,79129.90156,0.84,0.72
100236,FAWCETT MEMORIAL HOSPITAL,21298 OLEAN BLVD,PORT CHARLOTTE,FL,33952,26.9888809,-82.0988521,87707.63804,67564.10221,79129.90156,1.3,1.11
100238,NORTHSIDE HOSPITAL,6000 49TH ST N,SAINT PETERSBUR,FL,33709,27.8256524,-82.7027066,92764.51303,67564.10221,79129.90156,1.37,1.17
100239,EDWARD WHITE HOSPITAL,2323 9TH AVE N,SAINT PETERSBUR,FL,33713,27.7812308,-82.6650413,66387.48661,67564.10221,79129.90156,0.98,0.84
100240,ANNE BATES LEACH EYE HOSPITAL,900 NW 17TH ST,MIAMI,FL,33136,35.48673,-97.527329,38547.72222,67564.10221,79129.90156,0.57,0.49
100242,GULF COAST REGIONAL MEDICAL CENTER,449 W 23RD ST,PANAMA CITY,FL,32405,30.186569,-85.665132,88633.17241,67564.10221,79129.90156,1.31,1.12
100243,BRANDON REGIONAL HOSPITAL,119 OAKFIELD DR,BRANDON,FL,33511,27.9327476,-82.2873855,83119.73323,67564.10221,79129.90156,1.23,1.05
100244,CAPE CORAL HOSPITAL,636 DEL PRADO BLVD,CAPE CORAL,FL,33990,26.6395058,-81.9414282,36656.54502,67564.10221,79129.90156,0.54,0.46
